[{"id":"3799586627","name":"ＨＷオアシス富楽里とみやま（下り）","nameDisplay":"ＨＷオアシス富楽里とみやま（下り）IC","ref":null,"icType":"IC","lat":35.1016229,"lng":139.8555005},{"id":"3799586557","name":"ＨＷオアシス富楽里とみやま（上り）","nameDisplay":"ＨＷオアシス富楽里とみやま（上り）IC","ref":null,"icType":"IC","lat":35.0969353,"lng":139.8597683},{"id":"11352788031","name":"IC予定地","nameDisplay":"IC予定地IC","ref":null,"icType":"IC","lat":35.3940427,"lng":140.3056714},{"id":"11830852850","name":"IC予定地","nameDisplay":"IC予定地IC","ref":null,"icType":"IC","lat":35.386634,"lng":140.3325776},{"id":"270618091","name":"あきる野ＩＣ","nameDisplay":"あきる野ＩＣIC","ref":"42","icType":"IC","lat":35.716777,"lng":139.2830673},{"id":"5534805901","name":"あきる野ＩＣ","nameDisplay":"あきる野ＩＣIC","ref":"42","icType":"IC","lat":35.7202783,"lng":139.2842564},{"id":"2468861132","name":"いがしらリゾート西ランプ","nameDisplay":"いがしらリゾート西ランプIC","ref":null,"icType":"IC","lat":36.4934458,"lng":139.9914258},{"id":"1068240366","name":"いがしらリゾート南ランプ","nameDisplay":"いがしらリゾート南ランプIC","ref":null,"icType":"IC","lat":36.4816529,"lng":139.9909688},{"id":"13063631079","name":"いわき小名浜IC","nameDisplay":"いわき小名浜IC","ref":null,"icType":"IC","lat":36.947989,"lng":140.7854278},{"id":"13055791616","name":"いわき泉IC","nameDisplay":"いわき泉IC","ref":null,"icType":"IC","lat":36.9424865,"lng":140.8396863},{"id":"8474119892","name":"いわき添野IC","nameDisplay":"いわき添野IC","ref":null,"icType":"IC","lat":36.9410695,"lng":140.7953272},{"id":"13063631048","name":"いわき添野IC","nameDisplay":"いわき添野IC","ref":null,"icType":"IC","lat":36.9382201,"lng":140.8006452},{"id":"3768082843","name":"いわき勿来IC","nameDisplay":"いわき勿来IC","ref":"15","icType":"IC","lat":36.9050095,"lng":140.7511576},{"id":"4502042465","name":"いわき勿来IC","nameDisplay":"いわき勿来IC","ref":"15","icType":"IC","lat":36.9012495,"lng":140.7481134},{"id":"6443887814","name":"さいたま見沼","nameDisplay":"さいたま見沼IC","ref":"S205","icType":"IC","lat":35.8949355,"lng":139.6618824},{"id":"264005327","name":"つくばJCT","nameDisplay":"つくばJCT","ref":"4-1","icType":"JCT","lat":36.0357329,"lng":140.1320829},{"id":"705106968","name":"つくばJCT","nameDisplay":"つくばJCT","ref":"80","icType":"JCT","lat":36.0337356,"lng":140.1230552},{"id":"2606667995","name":"つくばJCT","nameDisplay":"つくばJCT","ref":"80","icType":"JCT","lat":36.0295152,"lng":140.12847},{"id":"2606731161","name":"つくばJCT","nameDisplay":"つくばJCT","ref":"4-1","icType":"JCT","lat":36.0340504,"lng":140.1249392},{"id":"752308352","name":"つくば牛久IC","nameDisplay":"つくば牛久IC","ref":"81","icType":"IC","lat":36.0202935,"lng":140.1380197},{"id":"911721713","name":"つくば牛久IC","nameDisplay":"つくば牛久IC","ref":"81","icType":"IC","lat":36.0275,"lng":140.1310256},{"id":"12091938427","name":"つくば西スマートIC","nameDisplay":"つくば西スマートIC","ref":"75-1","icType":"SIC","lat":36.0577233,"lng":140.0466561},{"id":"12692780736","name":"つくば西スマートIC","nameDisplay":"つくば西スマートIC","ref":"75-1","icType":"SIC","lat":36.0558693,"lng":140.0522769},{"id":"705107111","name":"つくば中央ＩＣ","nameDisplay":"つくば中央ＩＣIC","ref":"76","icType":"IC","lat":36.0565827,"lng":140.0918555},{"id":"3198645753","name":"つくば中央ＩＣ","nameDisplay":"つくば中央ＩＣIC","ref":"76","icType":"IC","lat":36.0579217,"lng":140.0848336},{"id":"552872644","name":"ひたちなかIC","nameDisplay":"ひたちなかIC","ref":"19","icType":"IC","lat":36.3774212,"lng":140.5778077},{"id":"552871513","name":"ひたち海浜公園IC","nameDisplay":"ひたち海浜公園IC","ref":"20","icType":"IC","lat":36.4004272,"lng":140.595996},{"id":"552874366","name":"ひたち海浜公園IC","nameDisplay":"ひたち海浜公園IC","ref":"20","icType":"IC","lat":36.3948123,"lng":140.5904162},{"id":"364549916","name":"みなとみらい","nameDisplay":"みなとみらいIC","ref":"166","icType":"IC","lat":35.4540958,"lng":139.6288575},{"id":"1484759992","name":"みなとみらい","nameDisplay":"みなとみらいIC","ref":"165","icType":"IC","lat":35.4575329,"lng":139.625857},{"id":"733863041","name":"阿見東IC","nameDisplay":"阿見東IC","ref":"83","icType":"IC","lat":35.9803561,"lng":140.244693},{"id":"911756511","name":"阿見東IC","nameDisplay":"阿見東IC","ref":"83","icType":"IC","lat":35.981565,"lng":140.2367338},{"id":"358057496","name":"芦ノ湖大観IC","nameDisplay":"芦ノ湖大観IC","ref":null,"icType":"IC","lat":35.1841771,"lng":139.0291355},{"id":"358057498","name":"芦ノ湖大観IC","nameDisplay":"芦ノ湖大観IC","ref":null,"icType":"IC","lat":35.1837969,"lng":139.0289053},{"id":"1435632551","name":"芦ノ湖大観IC","nameDisplay":"芦ノ湖大観IC","ref":null,"icType":"IC","lat":35.1849654,"lng":139.0308613},{"id":"1435632581","name":"芦ノ湖大観IC","nameDisplay":"芦ノ湖大観IC","ref":null,"icType":"IC","lat":35.1854576,"lng":139.0325808},{"id":"243828552","name":"綾瀬SIC","nameDisplay":"綾瀬SIC","ref":"4-1","icType":"SIC","lat":35.4459075,"lng":139.4149787},{"id":"357094369","name":"綾瀬SIC","nameDisplay":"綾瀬SIC","ref":"4-1","icType":"SIC","lat":35.4491628,"lng":139.4212809},{"id":"8577895543","name":"綾瀬スマートインターチェンジ北側","nameDisplay":"綾瀬スマートインターチェンジ北側IC","ref":null,"icType":"IC","lat":35.4487887,"lng":139.4196235},{"id":"6565417732","name":"綾瀬スマートインター南側","nameDisplay":"綾瀬スマートインター南側IC","ref":null,"icType":"IC","lat":35.446421,"lng":139.4214259},{"id":"357115389","name":"鮎沢ＰＡ(下り)","nameDisplay":"鮎沢ＰＡ(下り)IC","ref":null,"icType":"IC","lat":35.3637285,"lng":139.0228461},{"id":"867715873","name":"鮎沢ＰＡ(上り)","nameDisplay":"鮎沢ＰＡ(上り)IC","ref":null,"icType":"IC","lat":35.353235,"lng":139.0119177},{"id":"5910007400","name":"安行","nameDisplay":"安行IC","ref":"S09","icType":"IC","lat":35.8316863,"lng":139.7567283},{"id":"373166792","name":"伊勢原","nameDisplay":"伊勢原IC","ref":null,"icType":"IC","lat":35.3862955,"lng":139.3316681},{"id":"373166556","name":"伊勢原IC","nameDisplay":"伊勢原IC","ref":"7","icType":"IC","lat":35.3842134,"lng":139.3306329},{"id":"3805240988","name":"伊勢原JCT","nameDisplay":"伊勢原JCT","ref":"5-1","icType":"JCT","lat":35.4101497,"lng":139.3032785},{"id":"5663638584","name":"伊勢原JCT","nameDisplay":"伊勢原JCT","ref":"5-1","icType":"JCT","lat":35.4093787,"lng":139.318185},{"id":"6611351518","name":"伊勢原JCT","nameDisplay":"伊勢原JCT","ref":"5-1","icType":"JCT","lat":35.4134269,"lng":139.3177084},{"id":"6857129208","name":"伊勢原JCT","nameDisplay":"伊勢原JCT","ref":"5-1","icType":"JCT","lat":35.4146219,"lng":139.3041388},{"id":"5663638562","name":"伊勢原大山IC","nameDisplay":"伊勢原大山IC","ref":"3","icType":"IC","lat":35.415266,"lng":139.2817098},{"id":"5663638566","name":"伊勢原大山IC","nameDisplay":"伊勢原大山IC","ref":"3","icType":"IC","lat":35.4162828,"lng":139.2911554},{"id":"549344252","name":"伊勢崎IC","nameDisplay":"伊勢崎IC","ref":"3","icType":"IC","lat":36.3554377,"lng":139.2155703},{"id":"4732365628","name":"伊勢崎IC","nameDisplay":"伊勢崎IC","ref":"3","icType":"IC","lat":36.3538855,"lng":139.2237668},{"id":"3325363608","name":"伊豆山港","nameDisplay":"伊豆山港IC","ref":null,"icType":"IC","lat":35.1120682,"lng":139.0872688},{"id":"255526339","name":"衣笠ＩＣ","nameDisplay":"衣笠ＩＣIC","ref":"8","icType":"IC","lat":35.2425352,"lng":139.6562048},{"id":"1059412724","name":"衣笠ＩＣ","nameDisplay":"衣笠ＩＣIC","ref":"8","icType":"IC","lat":35.239945,"lng":139.6620393},{"id":"470279646","name":"磯子出口","nameDisplay":"磯子出口IC","ref":"B05","icType":"IC","lat":35.4010851,"lng":139.6199282},{"id":"1082039923","name":"一ツ橋","nameDisplay":"一ツ橋IC","ref":"27","icType":"IC","lat":35.6908991,"lng":139.7588896},{"id":"256426148","name":"一ツ橋出口","nameDisplay":"一ツ橋出口IC","ref":"27","icType":"IC","lat":35.6934076,"lng":139.7559984},{"id":"31297000","name":"一ノ橋JCT","nameDisplay":"一ノ橋JCT","ref":null,"icType":"JCT","lat":35.6554289,"lng":139.7401234},{"id":"574460605","name":"一ノ橋JCT","nameDisplay":"一ノ橋JCT","ref":null,"icType":"JCT","lat":35.6580565,"lng":139.7364593},{"id":"574460620","name":"一ノ橋JCT","nameDisplay":"一ノ橋JCT","ref":null,"icType":"JCT","lat":35.6536705,"lng":139.7374026},{"id":"600726182","name":"一之江","nameDisplay":"一之江IC","ref":"705","icType":"IC","lat":35.697592,"lng":139.8774469},{"id":"7301483738","name":"一之江","nameDisplay":"一之江IC","ref":"705","icType":"IC","lat":35.6973389,"lng":139.8816883},{"id":"296024326","name":"稲城","nameDisplay":"稲城IC","ref":"3-1","icType":"IC","lat":35.6555599,"lng":139.5157425},{"id":"267776680","name":"稲城IC","nameDisplay":"稲城IC","ref":"3-1","icType":"IC","lat":35.6556855,"lng":139.5198157},{"id":"2475268526","name":"稲敷ＩＣ","nameDisplay":"稲敷ＩＣIC","ref":"84","icType":"IC","lat":35.9599601,"lng":140.2957226},{"id":"2785105127","name":"稲敷ＩＣ","nameDisplay":"稲敷ＩＣIC","ref":"84","icType":"IC","lat":35.9554819,"lng":140.2999531},{"id":"3654552418","name":"茨城空港北IC","nameDisplay":"茨城空港北IC","ref":"17","icType":"IC","lat":36.2282641,"lng":140.4263112},{"id":"4885433199","name":"茨城空港北IC","nameDisplay":"茨城空港北IC","ref":"17","icType":"IC","lat":36.2337672,"lng":140.4212339},{"id":"549636055","name":"茨城町JCT","nameDisplay":"茨城町JCT","ref":"15-1","icType":"JCT","lat":36.3051872,"lng":140.4160092},{"id":"549636082","name":"茨城町JCT","nameDisplay":"茨城町JCT","ref":"15-1","icType":"JCT","lat":36.304003,"lng":140.4053938},{"id":"661083860","name":"茨城町JCT","nameDisplay":"茨城町JCT","ref":"18","icType":"JCT","lat":36.3007559,"lng":140.4111664},{"id":"670396011","name":"茨城町西IC","nameDisplay":"茨城町西IC","ref":"15","icType":"IC","lat":36.3055678,"lng":140.3907709},{"id":"1066118205","name":"茨城町西IC","nameDisplay":"茨城町西IC","ref":"15","icType":"IC","lat":36.306714,"lng":140.3819229},{"id":"549636536","name":"茨城町東IC","nameDisplay":"茨城町東IC","ref":"16","icType":"IC","lat":36.3151231,"lng":140.453288},{"id":"549636540","name":"茨城町東IC","nameDisplay":"茨城町東IC","ref":"16","icType":"IC","lat":36.3152678,"lng":140.4622234},{"id":"614553240","name":"宇都宮IC","nameDisplay":"宇都宮IC","ref":"10","icType":"IC","lat":36.6283258,"lng":139.8440724},{"id":"1162941895","name":"宇都宮IC","nameDisplay":"宇都宮IC","ref":null,"icType":"IC","lat":36.6382944,"lng":139.8450318},{"id":"1226761792","name":"宇都宮IC","nameDisplay":"宇都宮IC","ref":"10","icType":"IC","lat":36.6323776,"lng":139.8463407},{"id":"1162942634","name":"宇都宮上三川IC","nameDisplay":"宇都宮上三川IC","ref":"10","icType":"IC","lat":36.4821646,"lng":139.9028053},{"id":"2016762426","name":"宇都宮上三川IC","nameDisplay":"宇都宮上三川IC","ref":"10","icType":"IC","lat":36.4860798,"lng":139.9101652},{"id":"370267628","name":"羽生IC","nameDisplay":"羽生IC","ref":"5-1","icType":"IC","lat":36.1732363,"lng":139.5878983},{"id":"699723501","name":"羽生IC","nameDisplay":"羽生IC","ref":"5-1","icType":"IC","lat":36.1663769,"lng":139.5894772},{"id":"790120568","name":"羽生PA (下り)","nameDisplay":"羽生PA (下り)","ref":null,"icType":"SA_PA","lat":36.1777964,"lng":139.586985},{"id":"370267562","name":"羽生PA (上り)","nameDisplay":"羽生PA (上り)","ref":null,"icType":"SA_PA","lat":36.1840954,"lng":139.5859871},{"id":"281387580","name":"羽沢","nameDisplay":"羽沢IC","ref":"6","icType":"IC","lat":35.4854638,"lng":139.5931579},{"id":"281394395","name":"羽沢","nameDisplay":"羽沢IC","ref":"6","icType":"IC","lat":35.4899165,"lng":139.5921771},{"id":"36720852","name":"羽田出口","nameDisplay":"羽田出口IC","ref":"109","icType":"IC","lat":35.5542777,"lng":139.7467995},{"id":"36721365","name":"羽田出口","nameDisplay":"羽田出口IC","ref":"150","icType":"IC","lat":35.5491046,"lng":139.7442472},{"id":"36720848","name":"羽田入口","nameDisplay":"羽田入口IC","ref":null,"icType":"IC","lat":35.554349,"lng":139.7467071},{"id":"36721363","name":"羽田入口","nameDisplay":"羽田入口IC","ref":null,"icType":"IC","lat":35.549061,"lng":139.7443966},{"id":"281676594","name":"浦安","nameDisplay":"浦安IC","ref":"B31","icType":"IC","lat":35.6546614,"lng":139.9084231},{"id":"2303445190","name":"浦安","nameDisplay":"浦安IC","ref":"B30","icType":"IC","lat":35.6380392,"lng":139.8871255},{"id":"364359034","name":"浦賀ＩＣ","nameDisplay":"浦賀ＩＣIC","ref":"10","icType":"IC","lat":35.2509769,"lng":139.7056855},{"id":"309354649","name":"浦和IC","nameDisplay":"浦和IC","ref":"2","icType":"IC","lat":35.8782404,"lng":139.7315136},{"id":"370268989","name":"浦和IC","nameDisplay":"浦和IC","ref":"2","icType":"IC","lat":35.8966843,"lng":139.7176035},{"id":"4362194613","name":"浦和南","nameDisplay":"浦和南IC","ref":"S551","icType":"IC","lat":35.8317875,"lng":139.6340267},{"id":"4362198088","name":"浦和南","nameDisplay":"浦和南IC","ref":"S551","icType":"IC","lat":35.8329939,"lng":139.6327642},{"id":"1064146778","name":"浦和北","nameDisplay":"浦和北IC","ref":"S554","icType":"IC","lat":35.8721431,"lng":139.6198732},{"id":"1064146837","name":"浦和北","nameDisplay":"浦和北IC","ref":"S554","icType":"IC","lat":35.8704288,"lng":139.6201735},{"id":"260710868","name":"荏原","nameDisplay":"荏原IC","ref":"207","icType":"IC","lat":35.6187045,"lng":139.7155352},{"id":"1851653384","name":"永田","nameDisplay":"永田IC","ref":"359","icType":"IC","lat":35.43901,"lng":139.6024555},{"id":"279076842","name":"永福出口","nameDisplay":"永福出口IC","ref":"408","icType":"IC","lat":35.668205,"lng":139.6453368},{"id":"6681511134","name":"永福出口","nameDisplay":"永福出口IC","ref":"409","icType":"IC","lat":35.6699702,"lng":139.649777},{"id":"31337485","name":"塩浜","nameDisplay":"塩浜IC","ref":"904","icType":"IC","lat":35.6613093,"lng":139.8065504},{"id":"253713686","name":"横須賀","nameDisplay":"横須賀IC","ref":"7","icType":"IC","lat":35.2751631,"lng":139.6346926},{"id":"255526107","name":"横須賀ＩＣ","nameDisplay":"横須賀ＩＣIC","ref":"7","icType":"IC","lat":35.2798372,"lng":139.6315626},{"id":"253713666","name":"横須賀ＰＡ","nameDisplay":"横須賀ＰＡIC","ref":null,"icType":"IC","lat":35.2506053,"lng":139.6427548},{"id":"255526312","name":"横須賀ＰＡ","nameDisplay":"横須賀ＰＡIC","ref":null,"icType":"IC","lat":35.2525799,"lng":139.6405539},{"id":"476499270","name":"横浜駅西口出入口","nameDisplay":"横浜駅西口出入口IC","ref":"251","icType":"IC","lat":35.4679909,"lng":139.6205312},{"id":"364550496","name":"横浜駅東口出入口","nameDisplay":"横浜駅東口出入口IC","ref":"164","icType":"IC","lat":35.4612102,"lng":139.6237555},{"id":"2323169069","name":"横浜公園","nameDisplay":"横浜公園IC","ref":"167","icType":"IC","lat":35.4430059,"lng":139.6373097},{"id":"6359561853","name":"横浜公園出口","nameDisplay":"横浜公園出口IC","ref":"168","icType":"IC","lat":35.439572,"lng":139.6451587},{"id":"4435202077","name":"横浜港北","nameDisplay":"横浜港北IC","ref":"757;758","icType":"IC","lat":35.5170469,"lng":139.59071},{"id":"4741046931","name":"横浜港北JCT","nameDisplay":"横浜港北JCT","ref":null,"icType":"JCT","lat":35.5179319,"lng":139.5961112},{"id":"6988179578","name":"横浜港北JCT/横浜港北出口","nameDisplay":"横浜港北JCT/横浜港北出口","ref":"758","icType":"JCT","lat":35.5155313,"lng":139.5904969},{"id":"281390691","name":"横浜新道戸塚始点","nameDisplay":"横浜新道戸塚始点IC","ref":null,"icType":"IC","lat":35.4120858,"lng":139.5321021},{"id":"273331716","name":"横浜新道戸塚終点","nameDisplay":"横浜新道戸塚終点IC","ref":null,"icType":"IC","lat":35.4126293,"lng":139.5333152},{"id":"207681395","name":"横浜青葉IC/JCT","nameDisplay":"横浜青葉IC/JCT","ref":"3-1","icType":"JCT","lat":35.5393123,"lng":139.5364155},{"id":"357078500","name":"横浜青葉IC/JCT","nameDisplay":"横浜青葉IC/JCT","ref":"3-1","icType":"JCT","lat":35.5467493,"lng":139.5431723},{"id":"5517714072","name":"横浜青葉JCT/横浜青葉出口","nameDisplay":"横浜青葉JCT/横浜青葉出口","ref":"759","icType":"JCT","lat":35.5351538,"lng":139.5407937},{"id":"4490516951","name":"横浜町田","nameDisplay":"横浜町田IC","ref":"4","icType":"IC","lat":35.5064658,"lng":139.4827713},{"id":"357078640","name":"横浜町田IC","nameDisplay":"横浜町田IC","ref":"4","icType":"IC","lat":35.5110757,"lng":139.4866523},{"id":"360643783","name":"横浜町田IC","nameDisplay":"横浜町田IC","ref":null,"icType":"IC","lat":35.5042477,"lng":139.4850842},{"id":"5251905956","name":"横浜町田IC","nameDisplay":"横浜町田IC","ref":null,"icType":"IC","lat":35.5086391,"lng":139.47675},{"id":"263988137","name":"王子南","nameDisplay":"王子南IC","ref":"C33","icType":"IC","lat":35.7524644,"lng":139.7402997},{"id":"5463281511","name":"王子南","nameDisplay":"王子南IC","ref":"C33","icType":"IC","lat":35.7527915,"lng":139.7411066},{"id":"676408802","name":"王子北","nameDisplay":"王子北IC","ref":"C34","icType":"IC","lat":35.7573624,"lng":139.7461122},{"id":"1524811916","name":"岡芹IC","nameDisplay":"岡芹IC","ref":null,"icType":"IC","lat":36.3257025,"lng":139.9721743},{"id":"1949492994","name":"岡芹IC","nameDisplay":"岡芹IC","ref":null,"icType":"IC","lat":36.326626,"lng":139.9647346},{"id":"7403970260","name":"岡崎IC","nameDisplay":"岡崎IC","ref":null,"icType":"IC","lat":36.5445202,"lng":138.9431984},{"id":"8582750621","name":"岡崎IC","nameDisplay":"岡崎IC","ref":null,"icType":"IC","lat":36.5455325,"lng":138.936998},{"id":"529386501","name":"岡沢","nameDisplay":"岡沢IC","ref":"7","icType":"IC","lat":35.4772525,"lng":139.5974933},{"id":"3827565893","name":"荻窪IC","nameDisplay":"荻窪IC","ref":"2","icType":"IC","lat":35.2593829,"lng":139.1375881},{"id":"4717767187","name":"荻窪IC","nameDisplay":"荻窪IC","ref":"2","icType":"IC","lat":35.2586184,"lng":139.1365865},{"id":"3234072120","name":"桶川加納ＩＣ","nameDisplay":"桶川加納ＩＣIC","ref":"61","icType":"IC","lat":36.022907,"lng":139.5678913},{"id":"3234072124","name":"桶川加納ＩＣ","nameDisplay":"桶川加納ＩＣIC","ref":"61","icType":"IC","lat":36.0197671,"lng":139.5620469},{"id":"678477031","name":"桶川北本ＩＣ","nameDisplay":"桶川北本ＩＣIC","ref":"60","icType":"IC","lat":35.9988554,"lng":139.5167956},{"id":"6359496040","name":"桶川北本ＩＣ","nameDisplay":"桶川北本ＩＣIC","ref":"60","icType":"IC","lat":36.0047932,"lng":139.5234555},{"id":"2023129170","name":"下仁田IC","nameDisplay":"下仁田IC","ref":"4","icType":"IC","lat":36.2369814,"lng":138.8206846},{"id":"4460550013","name":"下仁田IC","nameDisplay":"下仁田IC","ref":"4","icType":"IC","lat":36.2349396,"lng":138.8276357},{"id":"253713106","name":"下川井","nameDisplay":"下川井IC","ref":null,"icType":"IC","lat":35.4844594,"lng":139.5108374},{"id":"297139413","name":"下川井","nameDisplay":"下川井IC","ref":null,"icType":"IC","lat":35.4800539,"lng":139.5179849},{"id":"252180228","name":"下牧ＰＡ（下り）","nameDisplay":"下牧ＰＡ（下り）IC","ref":null,"icType":"IC","lat":36.6998244,"lng":138.9879666},{"id":"4465672489","name":"下牧ＰＡ（上り）","nameDisplay":"下牧ＰＡ（上り）IC","ref":null,"icType":"IC","lat":36.7078916,"lng":138.9830975},{"id":"4361138358","name":"加賀","nameDisplay":"加賀IC","ref":"S05","icType":"IC","lat":35.7915888,"lng":139.7566954},{"id":"370267980","name":"加須IC","nameDisplay":"加須IC","ref":"5","icType":"IC","lat":36.1293481,"lng":139.6251533},{"id":"1226695992","name":"加須IC","nameDisplay":"加須IC","ref":"5","icType":"IC","lat":36.1242785,"lng":139.6297704},{"id":"484166486","name":"加平","nameDisplay":"加平IC","ref":"651/653","icType":"IC","lat":35.7710226,"lng":139.8227119},{"id":"762936855","name":"加平","nameDisplay":"加平IC","ref":"652","icType":"IC","lat":35.7809864,"lng":139.8254728},{"id":"762936872","name":"加平","nameDisplay":"加平IC","ref":"652/654","icType":"IC","lat":35.7841959,"lng":139.8264452},{"id":"762936883","name":"加平","nameDisplay":"加平IC","ref":"651","icType":"IC","lat":35.7755901,"lng":139.8241457},{"id":"2569233223","name":"加平","nameDisplay":"加平IC","ref":"654","icType":"IC","lat":35.7789027,"lng":139.8250479},{"id":"661588293","name":"夏海IC","nameDisplay":"夏海IC","ref":null,"icType":"IC","lat":36.3014034,"lng":140.5572626},{"id":"1125003835","name":"夏海IC","nameDisplay":"夏海IC","ref":null,"icType":"IC","lat":36.2961704,"lng":140.5583747},{"id":"253117222","name":"花園ＩＣ","nameDisplay":"花園ＩＣIC","ref":"7","icType":"IC","lat":36.1225156,"lng":139.2515222},{"id":"270643843","name":"花園ＩＣ","nameDisplay":"花園ＩＣIC","ref":"7","icType":"IC","lat":36.1265031,"lng":139.244814},{"id":"1648466200","name":"花之木","nameDisplay":"花之木IC","ref":"357","icType":"IC","lat":35.4338625,"lng":139.6159993},{"id":"1648466229","name":"花之木","nameDisplay":"花之木IC","ref":"357","icType":"IC","lat":35.4337329,"lng":139.616467},{"id":"1531260117","name":"花輪IC","nameDisplay":"花輪IC","ref":"5","icType":"IC","lat":35.6846787,"lng":140.0037241},{"id":"1587205093","name":"花輪IC","nameDisplay":"花輪IC","ref":"5","icType":"IC","lat":35.6881341,"lng":139.9975324},{"id":"260710789","name":"霞が関","nameDisplay":"霞が関IC","ref":"23","icType":"IC","lat":35.672078,"lng":139.7451239},{"id":"264877784","name":"霞が関出口","nameDisplay":"霞が関出口IC","ref":"24","icType":"IC","lat":35.6764066,"lng":139.7492937},{"id":"648841153","name":"海老名ＩＣ","nameDisplay":"海老名ＩＣIC","ref":"31","icType":"IC","lat":35.4357334,"lng":139.3767967},{"id":"2238384137","name":"海老名ＩＣ","nameDisplay":"海老名ＩＣIC","ref":"31","icType":"IC","lat":35.4418974,"lng":139.3758992},{"id":"257058413","name":"海老名JCT","nameDisplay":"海老名JCT","ref":"4-2","icType":"JCT","lat":35.4229867,"lng":139.383187},{"id":"648841120","name":"海老名JCT","nameDisplay":"海老名JCT","ref":"4-2","icType":"JCT","lat":35.4275328,"lng":139.3766509},{"id":"655124519","name":"海老名JCT","nameDisplay":"海老名JCT","ref":"4-2","icType":"JCT","lat":35.4227356,"lng":139.3740535},{"id":"1795935278","name":"海老名JCT","nameDisplay":"海老名JCT","ref":"4-2","icType":"JCT","lat":35.4214168,"lng":139.3744492},{"id":"257058400","name":"海老名ＳＡ（下り）","nameDisplay":"海老名ＳＡ（下り）IC","ref":null,"icType":"IC","lat":35.4346035,"lng":139.4028554},{"id":"243828539","name":"海老名ＳＡ（上り）","nameDisplay":"海老名ＳＡ（上り）IC","ref":null,"icType":"IC","lat":35.4284872,"lng":139.3963376},{"id":"1795935296","name":"海老名南JCT","nameDisplay":"海老名南JCT","ref":"1","icType":"JCT","lat":35.4045518,"lng":139.3740324},{"id":"5239618004","name":"海老名南JCT","nameDisplay":"海老名南JCT","ref":null,"icType":"JCT","lat":35.4098208,"lng":139.3740684},{"id":"5239618632","name":"海老名南JCT","nameDisplay":"海老名南JCT","ref":"1","icType":"JCT","lat":35.4094531,"lng":139.3722485},{"id":"970299576","name":"皆野長瀞ＩＣ","nameDisplay":"皆野長瀞ＩＣIC","ref":null,"icType":"IC","lat":36.0737769,"lng":139.1137161},{"id":"970299637","name":"皆野長瀞ＩＣ","nameDisplay":"皆野長瀞ＩＣIC","ref":null,"icType":"IC","lat":36.0748201,"lng":139.1183575},{"id":"626557315","name":"貝塚IC","nameDisplay":"貝塚IC","ref":"9","icType":"IC","lat":35.6256085,"lng":140.1396283},{"id":"267805296","name":"外苑出口","nameDisplay":"外苑出口IC","ref":"402","icType":"IC","lat":35.6807458,"lng":139.7139224},{"id":"1125926447","name":"外苑出口","nameDisplay":"外苑出口IC","ref":"401","icType":"IC","lat":35.6796288,"lng":139.7220537},{"id":"2545040799","name":"外環浦和","nameDisplay":"外環浦和IC","ref":"62","icType":"IC","lat":35.8389025,"lng":139.6785444},{"id":"530882841","name":"外環三郷西IC","nameDisplay":"外環三郷西IC","ref":"74","icType":"IC","lat":35.8361912,"lng":139.8587761},{"id":"1602311576","name":"外環三郷西IC","nameDisplay":"外環三郷西IC","ref":"74","icType":"IC","lat":35.8444384,"lng":139.8456912},{"id":"552931229","name":"笠間PA（西行き）","nameDisplay":"笠間PA（西行き）","ref":null,"icType":"SA_PA","lat":36.3434315,"lng":140.2576539},{"id":"552931326","name":"笠間PA（東行き）","nameDisplay":"笠間PA（東行き）","ref":null,"icType":"SA_PA","lat":36.3434221,"lng":140.2502707},{"id":"1211915099","name":"笠間西IC","nameDisplay":"笠間西IC","ref":"13","icType":"IC","lat":36.3443798,"lng":140.1783996},{"id":"3767867584","name":"笠間西IC","nameDisplay":"笠間西IC","ref":"13","icType":"IC","lat":36.3468735,"lng":140.1709043},{"id":"255643884","name":"葛西","nameDisplay":"葛西IC","ref":"B27","icType":"IC","lat":35.6410975,"lng":139.8721219},{"id":"255644314","name":"葛西","nameDisplay":"葛西IC","ref":"B26","icType":"IC","lat":35.6425494,"lng":139.8676109},{"id":"598514872","name":"葛西","nameDisplay":"葛西IC","ref":"B26","icType":"IC","lat":35.6453521,"lng":139.8613121},{"id":"598514888","name":"葛西","nameDisplay":"葛西IC","ref":"B27@","icType":"IC","lat":35.6431849,"lng":139.8677238},{"id":"8256670336","name":"葛西ジャンクション","nameDisplay":"葛西ジャンクション","ref":null,"icType":"JCT","lat":35.6464112,"lng":139.8563908},{"id":"255525592","name":"釜利谷JCT","nameDisplay":"釜利谷JCT","ref":"4-1","icType":"JCT","lat":35.352392,"lng":139.5975665},{"id":"293336795","name":"釜利谷JCT","nameDisplay":"釜利谷JCT","ref":"4-1","icType":"JCT","lat":35.3456467,"lng":139.5928486},{"id":"376452455","name":"釜利谷JCT","nameDisplay":"釜利谷JCT","ref":"4-1","icType":"JCT","lat":35.3569202,"lng":139.5985577},{"id":"391283248","name":"鎌取IC","nameDisplay":"鎌取IC","ref":null,"icType":"IC","lat":35.571475,"lng":140.1717479},{"id":"392676043","name":"茅ヶ崎JCT","nameDisplay":"茅ヶ崎JCT","ref":"25","icType":"JCT","lat":35.3506906,"lng":139.3986364},{"id":"799026734","name":"茅ヶ崎JCT","nameDisplay":"茅ヶ崎JCT","ref":"25","icType":"JCT","lat":35.3455582,"lng":139.3889643},{"id":"1758054485","name":"茅ヶ崎JCT","nameDisplay":"茅ヶ崎JCT","ref":null,"icType":"JCT","lat":35.3508998,"lng":139.391105},{"id":"1758054486","name":"茅ヶ崎JCT","nameDisplay":"茅ヶ崎JCT","ref":"25","icType":"JCT","lat":35.3511117,"lng":139.3901353},{"id":"805132289","name":"茅ヶ崎海岸IC","nameDisplay":"茅ヶ崎海岸IC","ref":"3","icType":"IC","lat":35.3259004,"lng":139.377264},{"id":"392676062","name":"茅ヶ崎西IC","nameDisplay":"茅ヶ崎西IC","ref":null,"icType":"IC","lat":35.3361034,"lng":139.3864501},{"id":"392676516","name":"茅ヶ崎中央IC","nameDisplay":"茅ヶ崎中央IC","ref":"24","icType":"IC","lat":35.3476842,"lng":139.3898201},{"id":"799026844","name":"茅ヶ崎中央IC","nameDisplay":"茅ヶ崎中央IC","ref":"24","icType":"IC","lat":35.3503764,"lng":139.402695},{"id":"2166270326","name":"寒川南IC","nameDisplay":"寒川南IC","ref":"26","icType":"IC","lat":35.3581659,"lng":139.3763639},{"id":"3389459028","name":"寒川北IC","nameDisplay":"寒川北IC","ref":"27","icType":"IC","lat":35.3869587,"lng":139.3786031},{"id":"5554659328","name":"寒川北IC","nameDisplay":"寒川北IC","ref":null,"icType":"IC","lat":35.3819943,"lng":139.3778955},{"id":"2530245812","name":"甘楽PA（下り）","nameDisplay":"甘楽PA（下り）","ref":null,"icType":"SA_PA","lat":36.2416878,"lng":138.9495647},{"id":"1094423596","name":"甘楽PA（上り）","nameDisplay":"甘楽PA（上り）","ref":null,"icType":"SA_PA","lat":36.2412135,"lng":138.941716},{"id":"3769590253","name":"関本PA（下り）","nameDisplay":"関本PA（下り）","ref":null,"icType":"SA_PA","lat":36.865147,"lng":140.7429592},{"id":"3769590676","name":"関本PA（上り）","nameDisplay":"関本PA（上り）","ref":null,"icType":"SA_PA","lat":36.8694061,"lng":140.7425123},{"id":"370267174","name":"館林IC","nameDisplay":"館林IC","ref":"6","icType":"IC","lat":36.2280784,"lng":139.5724205},{"id":"1782241269","name":"館林IC","nameDisplay":"館林IC","ref":"6","icType":"IC","lat":36.2218325,"lng":139.5694958},{"id":"3585004471","name":"岸谷生麦","nameDisplay":"岸谷生麦IC","ref":"751","icType":"IC","lat":35.4917682,"lng":139.6656765},{"id":"3585004597","name":"岸谷生麦","nameDisplay":"岸谷生麦IC","ref":"752","icType":"IC","lat":35.4914712,"lng":139.6613998},{"id":"3336354909","name":"岩IC","nameDisplay":"岩IC","ref":null,"icType":"IC","lat":35.1600533,"lng":139.1437063},{"id":"8263914794","name":"岩IC","nameDisplay":"岩IC","ref":null,"icType":"IC","lat":35.1599162,"lng":139.1437661},{"id":"206410352","name":"岩間IC","nameDisplay":"岩間IC","ref":"8","icType":"IC","lat":36.279931,"lng":140.3159433},{"id":"264004478","name":"岩間IC","nameDisplay":"岩間IC","ref":"8","icType":"IC","lat":36.284172,"lng":140.3224692},{"id":"263989728","name":"岩舟JCT","nameDisplay":"岩舟JCT","ref":"7-2","icType":"JCT","lat":36.3419023,"lng":139.6240111},{"id":"699710968","name":"岩舟JCT","nameDisplay":"岩舟JCT","ref":"7-2","icType":"JCT","lat":36.349472,"lng":139.619644},{"id":"370265222","name":"岩舟JCT","nameDisplay":"岩舟JCT","ref":"7-2","icType":"JCT","lat":36.3572975,"lng":139.6269866},{"id":"529143487","name":"岩槻IC","nameDisplay":"岩槻IC","ref":"3","icType":"IC","lat":35.9341182,"lng":139.6939171},{"id":"1226696393","name":"岩槻IC","nameDisplay":"岩槻IC","ref":"3","icType":"IC","lat":35.9383362,"lng":139.6898877},{"id":"1987267044","name":"寄居ＰＡ（下り）、スマートIC","nameDisplay":"寄居ＰＡ（下り）、スマートIC","ref":"7-1","icType":"SIC","lat":36.1691363,"lng":139.1966769},{"id":"3815589360","name":"寄居ＰＡ（上り）、スマートIC","nameDisplay":"寄居ＰＡ（上り）、スマートIC","ref":"7-1","icType":"SIC","lat":36.177355,"lng":139.1917423},{"id":"588244678","name":"寄居折原","nameDisplay":"寄居折原IC","ref":null,"icType":"IC","lat":36.1097784,"lng":139.1680028},{"id":"588244676","name":"寄居風布","nameDisplay":"寄居風布IC","ref":null,"icType":"IC","lat":36.1015889,"lng":139.1497742},{"id":"970299744","name":"寄居風布","nameDisplay":"寄居風布IC","ref":null,"icType":"IC","lat":36.1028491,"lng":139.151371},{"id":"252169057","name":"吉井IC","nameDisplay":"吉井IC","ref":"2","icType":"IC","lat":36.2423523,"lng":138.988683},{"id":"252682201","name":"吉井IC","nameDisplay":"吉井IC","ref":"2","icType":"IC","lat":36.2437218,"lng":138.995758},{"id":"718698132","name":"吉野町IC","nameDisplay":"吉野町IC","ref":null,"icType":"IC","lat":35.9529377,"lng":139.6082563},{"id":"805155311","name":"橘IC","nameDisplay":"橘IC","ref":"2","icType":"IC","lat":35.2872712,"lng":139.2341446},{"id":"263988838","name":"久喜IC","nameDisplay":"久喜IC","ref":"4","icType":"IC","lat":36.0572618,"lng":139.6550867},{"id":"1226696385","name":"久喜IC","nameDisplay":"久喜IC","ref":"4","icType":"IC","lat":36.0637487,"lng":139.6517778},{"id":"263988833","name":"久喜白岡JCT","nameDisplay":"久喜白岡JCT","ref":"3-2","icType":"JCT","lat":36.0429258,"lng":139.6600866},{"id":"370268336","name":"久喜白岡JCT","nameDisplay":"久喜白岡JCT","ref":"3-2","icType":"JCT","lat":36.0506447,"lng":139.6576791},{"id":"3431424007","name":"久喜白岡JCT","nameDisplay":"久喜白岡JCT","ref":"70","icType":"JCT","lat":36.0473493,"lng":139.6649812},{"id":"3867754515","name":"久喜白岡JCT","nameDisplay":"久喜白岡JCT","ref":"70","icType":"JCT","lat":36.0497837,"lng":139.6498543},{"id":"678463347","name":"宮前IC","nameDisplay":"宮前IC","ref":null,"icType":"IC","lat":35.9280851,"lng":139.5925494},{"id":"623853963","name":"宮野木JCT","nameDisplay":"宮野木JCT","ref":"7-1","icType":"JCT","lat":35.6620743,"lng":140.0892016},{"id":"623853987","name":"宮野木JCT","nameDisplay":"宮野木JCT","ref":"7-1","icType":"JCT","lat":35.6570753,"lng":140.1048839},{"id":"742494408","name":"宮野木JCT","nameDisplay":"宮野木JCT","ref":"5","icType":"JCT","lat":35.6572727,"lng":140.0983732},{"id":"2299078424","name":"宮野木JCT","nameDisplay":"宮野木JCT","ref":"5","icType":"JCT","lat":35.6640908,"lng":140.1041552},{"id":"366536144","name":"牛久阿見IC","nameDisplay":"牛久阿見IC","ref":"82","icType":"IC","lat":35.9929887,"lng":140.1766063},{"id":"911736551","name":"牛久阿見IC","nameDisplay":"牛久阿見IC","ref":"82","icType":"IC","lat":35.9914412,"lng":140.1835622},{"id":"891677559","name":"鋸南富山IC","nameDisplay":"鋸南富山IC","ref":"23","icType":"IC","lat":35.111363,"lng":139.8506656},{"id":"1868714397","name":"鋸南富山IC","nameDisplay":"鋸南富山IC","ref":"23","icType":"IC","lat":35.1170164,"lng":139.8513785},{"id":"1387052896","name":"鋸南保田ＩＣ","nameDisplay":"鋸南保田ＩＣIC","ref":"22","icType":"IC","lat":35.1402448,"lng":139.8477667},{"id":"1868714455","name":"鋸南保田ＩＣ","nameDisplay":"鋸南保田ＩＣIC","ref":"22","icType":"IC","lat":35.1451747,"lng":139.8475358},{"id":"572570042","name":"京橋","nameDisplay":"京橋IC","ref":null,"icType":"IC","lat":35.6772111,"lng":139.7744963},{"id":"281380818","name":"京浜川崎","nameDisplay":"京浜川崎IC","ref":"2","icType":"IC","lat":35.5954773,"lng":139.6282445},{"id":"598502338","name":"京浜川崎","nameDisplay":"京浜川崎IC","ref":"2","icType":"IC","lat":35.5947942,"lng":139.6277031},{"id":"598506886","name":"京浜川崎","nameDisplay":"京浜川崎IC","ref":"2","icType":"IC","lat":35.5895039,"lng":139.6227595},{"id":"598506915","name":"京浜川崎","nameDisplay":"京浜川崎IC","ref":"2","icType":"IC","lat":35.5894226,"lng":139.6229041},{"id":"623850540","name":"京葉JCT","nameDisplay":"京葉JCT","ref":"1-1","icType":"JCT","lat":35.710862,"lng":139.9194328},{"id":"623850601","name":"京葉JCT","nameDisplay":"京葉JCT","ref":"1-1","icType":"JCT","lat":35.7082907,"lng":139.9330392},{"id":"2474789270","name":"京葉JCT","nameDisplay":"京葉JCT","ref":"90","icType":"JCT","lat":35.714655,"lng":139.9205674},{"id":"5660621069","name":"京葉JCT","nameDisplay":"京葉JCT","ref":"90","icType":"JCT","lat":35.7031308,"lng":139.9293434},{"id":"5659158415","name":"京葉市川","nameDisplay":"京葉市川IC","ref":"2","icType":"IC","lat":35.7087054,"lng":139.9300896},{"id":"6400683469","name":"京葉市川","nameDisplay":"京葉市川IC","ref":"2","icType":"IC","lat":35.7102001,"lng":139.9247207},{"id":"3431413764","name":"境古河IC","nameDisplay":"境古河IC","ref":"73","icType":"IC","lat":36.1260442,"lng":139.8042075},{"id":"4706270126","name":"境古河IC","nameDisplay":"境古河IC","ref":"73","icType":"IC","lat":36.1245654,"lng":139.8092324},{"id":"1636638454","name":"狭山ＰＡ（外廻り）","nameDisplay":"狭山ＰＡ（外廻り）IC","ref":null,"icType":"IC","lat":35.8491366,"lng":139.3650575},{"id":"253119522","name":"狭山ＰＡ（内廻り）","nameDisplay":"狭山ＰＡ（内廻り）IC","ref":null,"icType":"IC","lat":35.8540928,"lng":139.3684486},{"id":"270900508","name":"狭山日高IC","nameDisplay":"狭山日高IC","ref":"46","icType":"IC","lat":35.864273,"lng":139.3779926},{"id":"410300827","name":"狭山日高IC","nameDisplay":"狭山日高IC","ref":"46","icType":"IC","lat":35.8680543,"lng":139.3775076},{"id":"3816228986","name":"玉井IC","nameDisplay":"玉井IC","ref":null,"icType":"IC","lat":36.1734057,"lng":139.3665358},{"id":"281381090","name":"玉川","nameDisplay":"玉川IC","ref":"1","icType":"IC","lat":35.6052759,"lng":139.6387115},{"id":"281381359","name":"玉川","nameDisplay":"玉川IC","ref":"1","icType":"IC","lat":35.6051513,"lng":139.6388025},{"id":"849136420","name":"錦糸町","nameDisplay":"錦糸町IC","ref":"702","icType":"IC","lat":35.6932529,"lng":139.8193681},{"id":"850376340","name":"錦糸町","nameDisplay":"錦糸町IC","ref":"701","icType":"IC","lat":35.6929334,"lng":139.8114528},{"id":"7598312147","name":"金井IC","nameDisplay":"金井IC","ref":null,"icType":"IC","lat":36.5114561,"lng":138.9900282},{"id":"8302447625","name":"金井IC","nameDisplay":"金井IC","ref":null,"icType":"IC","lat":36.5160356,"lng":138.9900685},{"id":"273331411","name":"金港JCT","nameDisplay":"金港JCT","ref":null,"icType":"JCT","lat":35.4687604,"lng":139.6270755},{"id":"364550932","name":"金港JCT","nameDisplay":"金港JCT","ref":null,"icType":"JCT","lat":35.4645559,"lng":139.623766},{"id":"476496811","name":"金港JCT","nameDisplay":"金港JCT","ref":null,"icType":"JCT","lat":35.4679211,"lng":139.62185},{"id":"31254160","name":"銀座","nameDisplay":"銀座IC","ref":"16","icType":"IC","lat":35.6647279,"lng":139.7653422},{"id":"31254341","name":"銀座","nameDisplay":"銀座IC","ref":"15","icType":"IC","lat":35.6712636,"lng":139.7717151},{"id":"1834887185","name":"銀座","nameDisplay":"銀座IC","ref":"16","icType":"IC","lat":35.6668783,"lng":139.7674809},{"id":"1834887252","name":"銀座","nameDisplay":"銀座IC","ref":"15","icType":"IC","lat":35.6701365,"lng":139.7708677},{"id":"1370195874","name":"九十九里IC","nameDisplay":"九十九里IC","ref":null,"icType":"IC","lat":35.5017862,"lng":140.4256106},{"id":"4464834932","name":"駒寄ＰＡ（下り）、スマートＩＣ","nameDisplay":"駒寄ＰＡ（下り）、スマートＩＣIC","ref":"11-1","icType":"IC","lat":36.427452,"lng":139.0158593},{"id":"252340660","name":"駒寄ＰＡ（上り）、スマートＩＣ","nameDisplay":"駒寄ＰＡ（上り）、スマートＩＣIC","ref":"11-1","icType":"IC","lat":36.435482,"lng":139.0144576},{"id":"3935796666","name":"駒形","nameDisplay":"駒形IC","ref":"605","icType":"IC","lat":35.704616,"lng":139.7961862},{"id":"1781526360","name":"駒形IC","nameDisplay":"駒形IC","ref":"2","icType":"IC","lat":36.3498154,"lng":139.1470874},{"id":"3169858522","name":"駒形IC","nameDisplay":"駒形IC","ref":"2","icType":"IC","lat":36.3455533,"lng":139.1403467},{"id":"36610838","name":"空港西出入口","nameDisplay":"空港西出入口IC","ref":"107","icType":"IC","lat":35.5589834,"lng":139.7542858},{"id":"36610850","name":"空港西出入口","nameDisplay":"空港西出入口IC","ref":null,"icType":"IC","lat":35.5599149,"lng":139.7544249},{"id":"35925775","name":"空港中央","nameDisplay":"空港中央IC","ref":"B16","icType":"IC","lat":35.5587246,"lng":139.7794865},{"id":"35926477","name":"空港中央","nameDisplay":"空港中央IC","ref":"B17","icType":"IC","lat":35.550291,"lng":139.786047},{"id":"252174760","name":"熊野町JCT","nameDisplay":"熊野町JCT","ref":null,"icType":"JCT","lat":35.7426502,"lng":139.7079018},{"id":"263987949","name":"熊野町JCT","nameDisplay":"熊野町JCT","ref":null,"icType":"JCT","lat":35.7426591,"lng":139.7078785},{"id":"2002165186","name":"君津ＩＣ","nameDisplay":"君津ＩＣIC","ref":"18","icType":"IC","lat":35.3228414,"lng":139.9452714},{"id":"2002165232","name":"君津ＩＣ","nameDisplay":"君津ＩＣIC","ref":"18","icType":"IC","lat":35.3151089,"lng":139.9433865},{"id":"3745758686","name":"君津ＰＡ（下り）、スマートIC","nameDisplay":"君津ＰＡ（下り）、スマートIC","ref":"18-1","icType":"SIC","lat":35.2863669,"lng":139.9280452},{"id":"7031697972","name":"君津ＰＡ（上り）、スマートIC","nameDisplay":"君津ＰＡ（上り）、スマートIC","ref":"18-1","icType":"SIC","lat":35.2808685,"lng":139.9251433},{"id":"1277883336","name":"桂IC","nameDisplay":"桂IC","ref":null,"icType":"IC","lat":35.500469,"lng":140.261329},{"id":"626557483","name":"穴川IC","nameDisplay":"穴川IC","ref":"8","icType":"IC","lat":35.6450604,"lng":140.1109375},{"id":"1581168913","name":"穴川IC","nameDisplay":"穴川IC","ref":"8","icType":"IC","lat":35.6284305,"lng":140.1323917},{"id":"1092788078","name":"月夜野IC","nameDisplay":"月夜野IC","ref":"14","icType":"IC","lat":36.6753588,"lng":139.0261531},{"id":"1281700151","name":"月夜野IC","nameDisplay":"月夜野IC","ref":"14","icType":"IC","lat":36.6772403,"lng":139.0150572},{"id":"2238384227","name":"圏央厚木ＩＣ","nameDisplay":"圏央厚木ＩＣIC","ref":"32","icType":"IC","lat":35.4834218,"lng":139.3716994},{"id":"2238384376","name":"圏央厚木ＩＣ","nameDisplay":"圏央厚木ＩＣIC","ref":"32","icType":"IC","lat":35.4769571,"lng":139.3739121},{"id":"3571260099","name":"圏央成田IC","nameDisplay":"圏央成田IC","ref":"91","icType":"IC","lat":35.7958143,"lng":140.4061597},{"id":"3571260100","name":"圏央成田IC","nameDisplay":"圏央成田IC","ref":"91","icType":"IC","lat":35.7849588,"lng":140.4129861},{"id":"270901252","name":"圏央鶴ヶ島ＩＣ","nameDisplay":"圏央鶴ヶ島ＩＣIC","ref":"47","icType":"IC","lat":35.9173622,"lng":139.3871776},{"id":"4450476010","name":"圏央鶴ヶ島ＩＣ","nameDisplay":"圏央鶴ヶ島ＩＣIC","ref":"47","icType":"IC","lat":35.9224449,"lng":139.3903342},{"id":"1533897653","name":"原木","nameDisplay":"原木IC","ref":"3","icType":"IC","lat":35.7046529,"lng":139.9482644},{"id":"623850561","name":"原木","nameDisplay":"原木IC","ref":"3","icType":"IC","lat":35.7026559,"lng":139.9545735},{"id":"1064064228","name":"戸越","nameDisplay":"戸越IC","ref":"205","icType":"IC","lat":35.6169469,"lng":139.7175451},{"id":"2703511281","name":"戸越","nameDisplay":"戸越IC","ref":"205","icType":"IC","lat":35.6169862,"lng":139.7174282},{"id":"309304457","name":"戸田西","nameDisplay":"戸田西IC","ref":"53","icType":"IC","lat":35.8167911,"lng":139.6341261},{"id":"2174909161","name":"戸田東IC","nameDisplay":"戸田東IC","ref":"61","icType":"IC","lat":35.8299003,"lng":139.6556778},{"id":"4108975293","name":"戸田南","nameDisplay":"戸田南IC","ref":"517","icType":"IC","lat":35.8019644,"lng":139.6478837},{"id":"4108975294","name":"戸田南","nameDisplay":"戸田南IC","ref":"517","icType":"IC","lat":35.8019862,"lng":139.647776},{"id":"2604141133","name":"五霞IC","nameDisplay":"五霞IC","ref":"72","icType":"IC","lat":36.0993432,"lng":139.7593985},{"id":"4994365959","name":"五霞IC","nameDisplay":"五霞IC","ref":"72","icType":"IC","lat":36.0921147,"lng":139.7619148},{"id":"2068189807","name":"五反田","nameDisplay":"五反田IC","ref":"C20","icType":"IC","lat":35.6254327,"lng":139.7175551},{"id":"3387909578","name":"五反田","nameDisplay":"五反田IC","ref":"C20","icType":"IC","lat":35.6306912,"lng":139.7096555},{"id":"1685515660","name":"護国寺","nameDisplay":"護国寺IC","ref":"505","icType":"IC","lat":35.7179966,"lng":139.7270748},{"id":"7412912521","name":"厚田IC","nameDisplay":"厚田IC","ref":null,"icType":"IC","lat":36.5449759,"lng":138.799082},{"id":"289426438","name":"厚木IC","nameDisplay":"厚木IC","ref":"5","icType":"IC","lat":35.4246167,"lng":139.3586255},{"id":"357095195","name":"厚木IC","nameDisplay":"厚木IC","ref":"5","icType":"IC","lat":35.4231341,"lng":139.3669684},{"id":"430041193","name":"厚木IC","nameDisplay":"厚木IC","ref":"5","icType":"IC","lat":35.4248469,"lng":139.3555083},{"id":"655124495","name":"厚木IC","nameDisplay":"厚木IC","ref":"5","icType":"IC","lat":35.422941,"lng":139.3672683},{"id":"812644126","name":"厚木PA/スマートIC（外回り）","nameDisplay":"厚木PA/スマートIC（外回り）","ref":"32-1","icType":"SA_PA","lat":35.4868912,"lng":139.3703018},{"id":"2421938512","name":"厚木PA/スマートIC（内回り）","nameDisplay":"厚木PA/スマートIC（内回り）","ref":"32-1","icType":"SA_PA","lat":35.4945191,"lng":139.3677932},{"id":"257059013","name":"厚木西IC","nameDisplay":"厚木西IC","ref":"8","icType":"IC","lat":35.4188823,"lng":139.3586018},{"id":"6042920728","name":"厚木西IC","nameDisplay":"厚木西IC","ref":"8","icType":"IC","lat":35.4144298,"lng":139.3490083},{"id":"5372134478","name":"厚木南IC","nameDisplay":"厚木南IC","ref":"2","icType":"IC","lat":35.4062974,"lng":139.3613745},{"id":"5375621968","name":"厚木南IC","nameDisplay":"厚木南IC","ref":"2","icType":"IC","lat":35.4062512,"lng":139.3511093},{"id":"1415541514","name":"向島","nameDisplay":"向島IC","ref":"607","icType":"IC","lat":35.7228646,"lng":139.8100296},{"id":"1415541524","name":"向島","nameDisplay":"向島IC","ref":"607","icType":"IC","lat":35.7249733,"lng":139.8105653},{"id":"255525429","name":"幸浦","nameDisplay":"幸浦IC","ref":"B01","icType":"IC","lat":35.3677786,"lng":139.6433195},{"id":"443726408","name":"幸浦","nameDisplay":"幸浦IC","ref":null,"icType":"IC","lat":35.358604,"lng":139.6435039},{"id":"5526696917","name":"幸手IC","nameDisplay":"幸手IC","ref":"71","icType":"IC","lat":36.0625336,"lng":139.7312149},{"id":"7304956011","name":"幸手IC","nameDisplay":"幸手IC","ref":"71","icType":"IC","lat":36.0688002,"lng":139.7464822},{"id":"568092781","name":"江戸橋","nameDisplay":"江戸橋IC","ref":null,"icType":"IC","lat":35.684801,"lng":139.7770931},{"id":"256426172","name":"江戸橋ジャンクション","nameDisplay":"江戸橋ジャンクション","ref":null,"icType":"JCT","lat":35.6841277,"lng":139.7752829},{"id":"264871771","name":"江戸橋ジャンクション","nameDisplay":"江戸橋ジャンクション","ref":null,"icType":"JCT","lat":35.6822965,"lng":139.7773914},{"id":"499275976","name":"江戸橋ジャンクション","nameDisplay":"江戸橋ジャンクション","ref":null,"icType":"JCT","lat":35.6810898,"lng":139.7807498},{"id":"567878876","name":"江戸橋ジャンクション","nameDisplay":"江戸橋ジャンクション","ref":null,"icType":"JCT","lat":35.6811381,"lng":139.7808879},{"id":"567878928","name":"江戸橋ジャンクション","nameDisplay":"江戸橋ジャンクション","ref":null,"icType":"JCT","lat":35.682251,"lng":139.7774898},{"id":"1744023982","name":"江戸橋ジャンクション","nameDisplay":"江戸橋ジャンクション","ref":null,"icType":"JCT","lat":35.6841002,"lng":139.7760438},{"id":"366536263","name":"江戸崎ＰＡ（外廻り）","nameDisplay":"江戸崎ＰＡ（外廻り）IC","ref":null,"icType":"IC","lat":35.9735102,"lng":140.2739932},{"id":"733863049","name":"江戸崎ＰＡ（内廻り）","nameDisplay":"江戸崎ＰＡ（内廻り）IC","ref":null,"icType":"IC","lat":35.9700023,"lng":140.2787357},{"id":"263988157","name":"江北JCT","nameDisplay":"江北JCT","ref":null,"icType":"JCT","lat":35.765177,"lng":139.7599436},{"id":"308933022","name":"江北JCT","nameDisplay":"江北JCT","ref":null,"icType":"JCT","lat":35.7687912,"lng":139.7618276},{"id":"309692606","name":"江北ジャンクション","nameDisplay":"江北ジャンクション","ref":null,"icType":"JCT","lat":35.7628029,"lng":139.7648494},{"id":"618194139","name":"港南台","nameDisplay":"港南台IC","ref":"4","icType":"IC","lat":35.3659219,"lng":139.5971496},{"id":"376452851","name":"港南台IC","nameDisplay":"港南台IC","ref":"4","icType":"IC","lat":35.3741341,"lng":139.5899303},{"id":"281377547","name":"港北","nameDisplay":"港北IC","ref":"5","icType":"IC","lat":35.5177969,"lng":139.5929994},{"id":"281377963","name":"港北","nameDisplay":"港北IC","ref":"5","icType":"IC","lat":35.5233203,"lng":139.594148},{"id":"281387588","name":"港北","nameDisplay":"港北IC","ref":"5","icType":"IC","lat":35.5213669,"lng":139.593708},{"id":"4623348393","name":"港北ＰＡ（下り）","nameDisplay":"港北ＰＡ（下り）IC","ref":null,"icType":"IC","lat":35.5389607,"lng":139.5363687},{"id":"243828508","name":"港北ＰＡ（上り）","nameDisplay":"港北ＰＡ（上り）IC","ref":null,"icType":"IC","lat":35.5316873,"lng":139.5243483},{"id":"7161576546","name":"行方IC","nameDisplay":"行方IC","ref":"15","icType":"IC","lat":36.1036403,"lng":140.4929424},{"id":"8762193326","name":"行方IC","nameDisplay":"行方IC","ref":"15","icType":"IC","lat":36.1066275,"lng":140.4936548},{"id":"260714458","name":"高井戸","nameDisplay":"高井戸IC","ref":"411","icType":"IC","lat":35.6732258,"lng":139.6213954},{"id":"7111415496","name":"高井戸IC","nameDisplay":"高井戸IC","ref":"1","icType":"IC","lat":35.6804894,"lng":139.6047395},{"id":"252179511","name":"高坂ＳＡ（下り）","nameDisplay":"高坂ＳＡ（下り）IC","ref":null,"icType":"IC","lat":35.9831736,"lng":139.3809151},{"id":"262595086","name":"高坂ＳＡ（上り）","nameDisplay":"高坂ＳＡ（上り）IC","ref":null,"icType":"IC","lat":35.9891995,"lng":139.3840962},{"id":"549445260","name":"高崎ＩＣ","nameDisplay":"高崎ＩＣIC","ref":"10","icType":"IC","lat":36.3402852,"lng":139.0573914},{"id":"4464730415","name":"高崎ＩＣ","nameDisplay":"高崎ＩＣIC","ref":"10","icType":"IC","lat":36.3339557,"lng":139.0610382},{"id":"252179770","name":"高崎JCT","nameDisplay":"高崎JCT","ref":"9-2","icType":"JCT","lat":36.3178885,"lng":139.0802903},{"id":"506053426","name":"高崎JCT","nameDisplay":"高崎JCT","ref":"9-2","icType":"JCT","lat":36.3234513,"lng":139.0716607},{"id":"549326687","name":"高崎JCT","nameDisplay":"高崎JCT","ref":"9-2","icType":"JCT","lat":36.3237525,"lng":139.0766766},{"id":"2689757131","name":"高崎玉村スマートＩＣ","nameDisplay":"高崎玉村スマートＩＣIC","ref":"9-1","icType":"IC","lat":36.3089751,"lng":139.0900913},{"id":"2702296909","name":"高崎玉村スマートＩＣ","nameDisplay":"高崎玉村スマートＩＣIC","ref":"9-1","icType":"IC","lat":36.3090201,"lng":139.0902588},{"id":"2127484102","name":"高樹町","nameDisplay":"高樹町IC","ref":"301","icType":"IC","lat":35.6596756,"lng":139.7226877},{"id":"2127484104","name":"高樹町出口","nameDisplay":"高樹町出口IC","ref":"301","icType":"IC","lat":35.6595528,"lng":139.722272},{"id":"1928229742","name":"高松","nameDisplay":"高松IC","ref":"C28","icType":"IC","lat":35.7387379,"lng":139.704512},{"id":"3267028715","name":"高滝湖ＰＡ（外廻り）","nameDisplay":"高滝湖ＰＡ（外廻り）IC","ref":null,"icType":"IC","lat":35.3564621,"lng":140.1678343},{"id":"2346564219","name":"高滝湖ＰＡ（内廻り）","nameDisplay":"高滝湖ＰＡ（内廻り）IC","ref":null,"icType":"IC","lat":35.3590115,"lng":140.1587899},{"id":"4736248095","name":"高谷JCT","nameDisplay":"高谷JCT","ref":"1","icType":"JCT","lat":35.683553,"lng":139.9412876},{"id":"4736248292","name":"高谷JCT","nameDisplay":"高谷JCT","ref":"92","icType":"JCT","lat":35.6893924,"lng":139.9452112},{"id":"1679943889","name":"高谷JCT","nameDisplay":"高谷JCT","ref":"1","icType":"JCT","lat":35.6906352,"lng":139.9531356},{"id":"392969119","name":"高田ＩＣ","nameDisplay":"高田ＩＣIC","ref":"3","icType":"IC","lat":35.5717526,"lng":140.2239917},{"id":"392973590","name":"高田IC","nameDisplay":"高田IC","ref":null,"icType":"IC","lat":35.556008,"lng":140.2090955},{"id":"1691678834","name":"高田ＩＣ","nameDisplay":"高田ＩＣIC","ref":"3","icType":"IC","lat":35.5729186,"lng":140.2163088},{"id":"2385639128","name":"高田IC","nameDisplay":"高田IC","ref":null,"icType":"IC","lat":35.5561704,"lng":140.2082904},{"id":"2091157603","name":"高島平","nameDisplay":"高島平IC","ref":"515","icType":"IC","lat":35.7841954,"lng":139.6537987},{"id":"2091157604","name":"高島平","nameDisplay":"高島平IC","ref":"515","icType":"IC","lat":35.7842566,"lng":139.6538219},{"id":"417752621","name":"高萩IC","nameDisplay":"高萩IC","ref":"13","icType":"IC","lat":36.7460285,"lng":140.6842427},{"id":"418093256","name":"高萩IC","nameDisplay":"高萩IC","ref":"13","icType":"IC","lat":36.742579,"lng":140.6825447},{"id":"1694306286","name":"高尾山ＩＣ","nameDisplay":"高尾山ＩＣIC","ref":"35","icType":"IC","lat":35.6261806,"lng":139.2622296},{"id":"2936455511","name":"高尾山ＩＣ","nameDisplay":"高尾山ＩＣIC","ref":"35","icType":"IC","lat":35.6217583,"lng":139.2642751},{"id":"805132214","name":"国府津IC","nameDisplay":"国府津IC","ref":"3","icType":"IC","lat":35.2782005,"lng":139.2091479},{"id":"3827607700","name":"国府津IC","nameDisplay":"国府津IC","ref":"3","icType":"IC","lat":35.2752012,"lng":139.2034883},{"id":"260715070","name":"国立府中IC","nameDisplay":"国立府中IC","ref":"4","icType":"IC","lat":35.6694967,"lng":139.4443434},{"id":"267803495","name":"国立府中IC","nameDisplay":"国立府中IC","ref":"4","icType":"IC","lat":35.6749677,"lng":139.4381781},{"id":"264825172","name":"黒磯板室IC;黒磯PA (下り)","nameDisplay":"黒磯板室IC;黒磯PA (下り)","ref":"12-1","icType":"SA_PA","lat":36.9557802,"lng":139.9861272},{"id":"1798851864","name":"黒磯板室IC;黒磯PA (上り)","nameDisplay":"黒磯板室IC;黒磯PA (上り)","ref":"12-1","icType":"SA_PA","lat":36.9620079,"lng":139.9933967},{"id":"304036448","name":"今井ＩＣ","nameDisplay":"今井ＩＣIC","ref":"13","icType":"IC","lat":35.4445519,"lng":139.563175},{"id":"726507131","name":"今井ＩＣ","nameDisplay":"今井ＩＣIC","ref":"13","icType":"IC","lat":35.4407467,"lng":139.5576654},{"id":"610741206","name":"今市IC","nameDisplay":"今市IC","ref":"3","icType":"IC","lat":36.7185396,"lng":139.6745338},{"id":"2272918546","name":"今市IC","nameDisplay":"今市IC","ref":"3","icType":"IC","lat":36.7214877,"lng":139.6695577},{"id":"364358968","name":"佐原ＩＣ","nameDisplay":"佐原ＩＣIC","ref":"9","icType":"IC","lat":35.2374601,"lng":139.672275},{"id":"157019730","name":"佐倉IC","nameDisplay":"佐倉IC","ref":"8","icType":"IC","lat":35.6877048,"lng":140.2409976},{"id":"1830188925","name":"佐倉IC","nameDisplay":"佐倉IC","ref":"8","icType":"IC","lat":35.6869309,"lng":140.2338852},{"id":"699790030","name":"佐野SA (下り):佐野スマートIC","nameDisplay":"佐野SA (下り):佐野スマートIC","ref":"7-1","icType":"SA_PA","lat":36.3137771,"lng":139.6211436},{"id":"370762847","name":"佐野SA (上り);佐野スマートIC","nameDisplay":"佐野SA (上り);佐野スマートIC","ref":"7-1","icType":"SA_PA","lat":36.3211589,"lng":139.6169855},{"id":"699710933","name":"佐野田沼IC","nameDisplay":"佐野田沼IC","ref":"7","icType":"IC","lat":36.3565949,"lng":139.5717924},{"id":"1250039518","name":"佐野田沼IC","nameDisplay":"佐野田沼IC","ref":"7","icType":"IC","lat":36.36147,"lng":139.5666967},{"id":"539697643","name":"佐野藤岡IC","nameDisplay":"佐野藤岡IC","ref":"7","icType":"IC","lat":36.2942566,"lng":139.6189501},{"id":"1786910641","name":"佐野藤岡IC","nameDisplay":"佐野藤岡IC","ref":"7","icType":"IC","lat":36.2892674,"lng":139.6183066},{"id":"1072717612","name":"坂戸ＩＣ","nameDisplay":"坂戸ＩＣIC","ref":"51","icType":"IC","lat":35.9690846,"lng":139.4461043},{"id":"3723476958","name":"坂戸ＩＣ","nameDisplay":"坂戸ＩＣIC","ref":"51","icType":"IC","lat":35.9653487,"lng":139.4410955},{"id":"2441250296","name":"坂戸西スマートＩＣ","nameDisplay":"坂戸西スマートＩＣIC","ref":"5-1","icType":"IC","lat":35.9697045,"lng":139.3803329},{"id":"2441299161","name":"坂戸西スマートＩＣ","nameDisplay":"坂戸西スマートＩＣIC","ref":"5-1","icType":"IC","lat":35.9633161,"lng":139.3805328},{"id":"2604163952","name":"坂東IC","nameDisplay":"坂東IC","ref":"74","icType":"IC","lat":36.0899758,"lng":139.8871697},{"id":"4706387191","name":"坂東IC","nameDisplay":"坂東IC","ref":"74","icType":"IC","lat":36.0877434,"lng":139.8945191},{"id":"447800151","name":"阪東橋","nameDisplay":"阪東橋IC","ref":"357","icType":"IC","lat":35.4329179,"lng":139.6192804},{"id":"552996032","name":"桜川筑西IC","nameDisplay":"桜川筑西IC","ref":"12","icType":"IC","lat":36.3608461,"lng":140.0808272},{"id":"2130813363","name":"桜川筑西IC","nameDisplay":"桜川筑西IC","ref":"12","icType":"IC","lat":36.3585845,"lng":140.0857951},{"id":"742632523","name":"桜土浦IC","nameDisplay":"桜土浦IC","ref":"5","icType":"IC","lat":36.0532304,"lng":140.1527672},{"id":"899059562","name":"桜土浦IC","nameDisplay":"桜土浦IC","ref":"5","icType":"IC","lat":36.0598236,"lng":140.1568065},{"id":"310160780","name":"三ツ沢","nameDisplay":"三ツ沢IC","ref":"7","icType":"IC","lat":35.4733856,"lng":139.6016256},{"id":"1430001683","name":"三ツ沢出入口","nameDisplay":"三ツ沢出入口IC","ref":"253","icType":"IC","lat":35.4711018,"lng":139.610478},{"id":"934214312","name":"三郷IC","nameDisplay":"三郷IC","ref":"1;661","icType":"IC","lat":35.830859,"lng":139.8653463},{"id":"13718181894","name":"三郷IC","nameDisplay":"三郷IC","ref":"1;661W","icType":"IC","lat":35.8398535,"lng":139.8559024},{"id":"559388743","name":"三郷IC西出口","nameDisplay":"三郷IC西出口IC","ref":"1;661W","icType":"IC","lat":35.8388965,"lng":139.8560758},{"id":"559388357","name":"三郷IC東出口","nameDisplay":"三郷IC東出口IC","ref":"1;661","icType":"IC","lat":35.8335891,"lng":139.8627663},{"id":"264005520","name":"三郷JCT","nameDisplay":"三郷JCT","ref":"1","icType":"JCT","lat":35.839826,"lng":139.8645691},{"id":"360601233","name":"三郷JCT","nameDisplay":"三郷JCT","ref":"80","icType":"JCT","lat":35.8397001,"lng":139.855741},{"id":"530886976","name":"三郷JCT","nameDisplay":"三郷JCT","ref":"1","icType":"JCT","lat":35.8328368,"lng":139.8561246},{"id":"1781291508","name":"三郷JCT","nameDisplay":"三郷JCT","ref":"80","icType":"JCT","lat":35.8322072,"lng":139.8638885},{"id":"6418681927","name":"三郷JCT","nameDisplay":"三郷JCT","ref":"80","icType":"JCT","lat":35.8417415,"lng":139.8537697},{"id":"5566359036","name":"三郷中央IC","nameDisplay":"三郷中央IC","ref":"81","icType":"IC","lat":35.8235053,"lng":139.8720842},{"id":"5948875564","name":"三郷中央IC","nameDisplay":"三郷中央IC","ref":"81","icType":"IC","lat":35.835528,"lng":139.8605902},{"id":"465290731","name":"三郷南","nameDisplay":"三郷南IC","ref":"82","icType":"IC","lat":35.8045532,"lng":139.8771616},{"id":"465291267","name":"三郷南","nameDisplay":"三郷南IC","ref":null,"icType":"IC","lat":35.7987513,"lng":139.8782009},{"id":"547680379","name":"三郷料金所スマートIC","nameDisplay":"三郷料金所スマートIC","ref":"1-1","icType":"SIC","lat":35.8679001,"lng":139.8848848},{"id":"4703835889","name":"三郷料金所スマートIC","nameDisplay":"三郷料金所スマートIC","ref":"1-1","icType":"SIC","lat":35.8635582,"lng":139.88184},{"id":"4361041900","name":"三渓園出口","nameDisplay":"三渓園出口IC","ref":"B06","icType":"IC","lat":35.4140242,"lng":139.6576237},{"id":"1091725794","name":"三軒茶屋","nameDisplay":"三軒茶屋IC","ref":"305","icType":"IC","lat":35.6475809,"lng":139.6784991},{"id":"2359268395","name":"三軒茶屋出入口","nameDisplay":"三軒茶屋出入口IC","ref":"305","icType":"IC","lat":35.6457623,"lng":139.6755077},{"id":"255513709","name":"三宅坂ジャンクション","nameDisplay":"三宅坂ジャンクション","ref":null,"icType":"JCT","lat":35.6835359,"lng":139.7442641},{"id":"260710800","name":"三宅坂ジャンクション","nameDisplay":"三宅坂ジャンクション","ref":null,"icType":"JCT","lat":35.6777376,"lng":139.7483918},{"id":"573233876","name":"三宅坂ジャンクション","nameDisplay":"三宅坂ジャンクション","ref":null,"icType":"JCT","lat":35.6787714,"lng":139.7403781},{"id":"6458437173","name":"三宅坂ジャンクション","nameDisplay":"三宅坂ジャンクション","ref":null,"icType":"JCT","lat":35.683879,"lng":139.744299},{"id":"252682037","name":"三芳ＰＡ（下り）、スマートIC","nameDisplay":"三芳ＰＡ（下り）、スマートIC","ref":null,"icType":"SIC","lat":35.8374104,"lng":139.5044028},{"id":"4134248738","name":"三芳ＰＡ（上り）、スマートＩＣ","nameDisplay":"三芳ＰＡ（上り）、スマートＩＣIC","ref":null,"icType":"IC","lat":35.8460986,"lng":139.5026597},{"id":"6743732066","name":"山下町","nameDisplay":"山下町IC","ref":"354","icType":"IC","lat":35.4414453,"lng":139.6491083},{"id":"358057017","name":"山崎IC","nameDisplay":"山崎IC","ref":null,"icType":"IC","lat":35.2342592,"lng":139.1138125},{"id":"358058420","name":"山崎IC","nameDisplay":"山崎IC","ref":null,"icType":"IC","lat":35.2346929,"lng":139.1142},{"id":"1369719526","name":"山武成東ＩＣ","nameDisplay":"山武成東ＩＣIC","ref":"94","icType":"IC","lat":35.620762,"lng":140.3862166},{"id":"4709222616","name":"山武成東ＩＣ","nameDisplay":"山武成東ＩＣIC","ref":"94","icType":"IC","lat":35.6156733,"lng":140.3786119},{"id":"370516863","name":"四つ木","nameDisplay":"四つ木IC","ref":"C42","icType":"IC","lat":35.7288636,"lng":139.83687},{"id":"370516864","name":"四つ木","nameDisplay":"四つ木IC","ref":"C41","icType":"IC","lat":35.7386734,"lng":139.8271817},{"id":"1697733832","name":"四つ木","nameDisplay":"四つ木IC","ref":"C42","icType":"IC","lat":35.7295174,"lng":139.8360758},{"id":"1502524555","name":"四街道IC","nameDisplay":"四街道IC","ref":"7","icType":"IC","lat":35.6841123,"lng":140.1838176},{"id":"1830189346","name":"四街道IC","nameDisplay":"四街道IC","ref":"7","icType":"IC","lat":35.6843746,"lng":140.1745059},{"id":"1934456407","name":"姉崎袖ケ浦ＩＣ","nameDisplay":"姉崎袖ケ浦ＩＣIC","ref":"14","icType":"IC","lat":35.426192,"lng":140.0387716},{"id":"1934456421","name":"姉崎袖ケ浦ＩＣ","nameDisplay":"姉崎袖ケ浦ＩＣIC","ref":"14","icType":"IC","lat":35.4298845,"lng":140.0466708},{"id":"2335683215","name":"子安出入口","nameDisplay":"子安出入口IC","ref":"160","icType":"IC","lat":35.4838419,"lng":139.65003},{"id":"2337123339","name":"子安出入口","nameDisplay":"子安出入口IC","ref":"159","icType":"IC","lat":35.4857145,"lng":139.6556673},{"id":"1954899610","name":"市原ＩＣ","nameDisplay":"市原ＩＣIC","ref":"13","icType":"IC","lat":35.4940777,"lng":140.0909396},{"id":"2476790146","name":"市原ＩＣ","nameDisplay":"市原ＩＣIC","ref":"13","icType":"IC","lat":35.497262,"lng":140.0947318},{"id":"1934416288","name":"市原ＳＡ（下り）","nameDisplay":"市原ＳＡ（下り）IC","ref":null,"icType":"IC","lat":35.4621551,"lng":140.0858972},{"id":"1934416305","name":"市原ＳＡ（上り）","nameDisplay":"市原ＳＡ（上り）IC","ref":null,"icType":"IC","lat":35.4576154,"lng":140.084531},{"id":"5023754455","name":"市原鶴舞ＩＣ","nameDisplay":"市原鶴舞ＩＣIC","ref":"104","icType":"IC","lat":35.3562011,"lng":140.1779179},{"id":"5608725406","name":"市原鶴舞ＩＣ","nameDisplay":"市原鶴舞ＩＣIC","ref":"104","icType":"IC","lat":35.3607783,"lng":140.186102},{"id":"5657615611","name":"市川中央IC","nameDisplay":"市川中央IC","ref":"86","icType":"IC","lat":35.7190396,"lng":139.9170883},{"id":"5658923189","name":"市川中央IC","nameDisplay":"市川中央IC","ref":"86","icType":"IC","lat":35.7235018,"lng":139.9164663},{"id":"5657615578","name":"市川南","nameDisplay":"市川南IC","ref":"91","icType":"IC","lat":35.6990508,"lng":139.9353236},{"id":"5658915315","name":"市川北IC","nameDisplay":"市川北IC","ref":"85","icType":"IC","lat":35.7451755,"lng":139.9195189},{"id":"5658923123","name":"市川北IC","nameDisplay":"市川北IC","ref":"85","icType":"IC","lat":35.7496954,"lng":139.9189815},{"id":"31337476","name":"枝川","nameDisplay":"枝川IC","ref":"906","icType":"IC","lat":35.6580447,"lng":139.8088562},{"id":"2345571935","name":"汐入","nameDisplay":"汐入IC","ref":"155","icType":"IC","lat":35.4986748,"lng":139.6915479},{"id":"2345571962","name":"汐入","nameDisplay":"汐入IC","ref":"155","icType":"IC","lat":35.5000572,"lng":139.6946344},{"id":"2345571968","name":"汐入","nameDisplay":"汐入IC","ref":"155","icType":"IC","lat":35.5002595,"lng":139.6946037},{"id":"2345605592","name":"汐入","nameDisplay":"汐入IC","ref":"155","icType":"IC","lat":35.4984467,"lng":139.6903557},{"id":"571468136","name":"汐留","nameDisplay":"汐留IC","ref":"18","icType":"IC","lat":35.6601507,"lng":139.7600832},{"id":"31253688","name":"汐留入口","nameDisplay":"汐留入口IC","ref":null,"icType":"IC","lat":35.6632827,"lng":139.7629036},{"id":"263989917","name":"鹿沼IC","nameDisplay":"鹿沼IC","ref":"9","icType":"IC","lat":36.5355018,"lng":139.796862},{"id":"1226724504","name":"鹿沼IC","nameDisplay":"鹿沼IC","ref":"9","icType":"IC","lat":36.5431269,"lng":139.8002216},{"id":"263988636","name":"鹿浜橋","nameDisplay":"鹿浜橋IC","ref":"S01","icType":"IC","lat":35.7744506,"lng":139.752396},{"id":"610741760","name":"篠井IC","nameDisplay":"篠井IC","ref":"1-1","icType":"IC","lat":36.6674257,"lng":139.8191796},{"id":"623850525","name":"篠崎IC","nameDisplay":"篠崎IC","ref":"1","icType":"IC","lat":35.7082809,"lng":139.9144195},{"id":"31253977","name":"芝浦","nameDisplay":"芝浦IC","ref":"101","icType":"IC","lat":35.6414479,"lng":139.7545699},{"id":"31252934","name":"芝浦JCT","nameDisplay":"芝浦JCT","ref":null,"icType":"JCT","lat":35.6484939,"lng":139.7580882},{"id":"31296943","name":"芝公園出口","nameDisplay":"芝公園出口IC","ref":"20","icType":"IC","lat":35.6544714,"lng":139.7459029},{"id":"31296958","name":"芝公園出口","nameDisplay":"芝公園出口IC","ref":"19","icType":"IC","lat":35.6531722,"lng":139.7499173},{"id":"31295430","name":"芝公園入口","nameDisplay":"芝公園入口IC","ref":null,"icType":"IC","lat":35.6533664,"lng":139.7529688},{"id":"273331272","name":"守屋町出口","nameDisplay":"守屋町出口IC","ref":"157","icType":"IC","lat":35.4864239,"lng":139.6580224},{"id":"286641934","name":"狩場","nameDisplay":"狩場IC","ref":null,"icType":"IC","lat":35.4460979,"lng":139.5753181},{"id":"286641897","name":"狩場JCT","nameDisplay":"狩場JCT","ref":null,"icType":"JCT","lat":35.4429059,"lng":139.5779884},{"id":"447798983","name":"狩場JCT","nameDisplay":"狩場JCT","ref":null,"icType":"JCT","lat":35.4430452,"lng":139.5781166},{"id":"980039696","name":"狩場JCT","nameDisplay":"狩場JCT","ref":null,"icType":"JCT","lat":35.441286,"lng":139.580725},{"id":"2283895830","name":"酒々井IC","nameDisplay":"酒々井IC","ref":"8-1","icType":"IC","lat":35.7293755,"lng":140.2947665},{"id":"2608014625","name":"酒々井IC","nameDisplay":"酒々井IC","ref":"8-1","icType":"IC","lat":35.7222408,"lng":140.2906296},{"id":"1830189088","name":"酒々井PA (下り)","nameDisplay":"酒々井PA (下り)","ref":null,"icType":"SA_PA","lat":35.7070465,"lng":140.2807606},{"id":"1830189184","name":"酒々井PA (上り)","nameDisplay":"酒々井PA (上り)","ref":null,"icType":"SA_PA","lat":35.7142568,"lng":140.2872696},{"id":"293335046","name":"酒匂IC","nameDisplay":"酒匂IC","ref":"4","icType":"IC","lat":35.2630069,"lng":139.1864805},{"id":"2520524802","name":"渋川伊香保IC","nameDisplay":"渋川伊香保IC","ref":"12","icType":"IC","lat":36.4785599,"lng":139.0185139},{"id":"4464843020","name":"渋川伊香保IC","nameDisplay":"渋川伊香保IC","ref":"12","icType":"IC","lat":36.4726157,"lng":139.0134843},{"id":"3174589518","name":"渋谷","nameDisplay":"渋谷IC","ref":"303","icType":"IC","lat":35.6561727,"lng":139.6969796},{"id":"3174589506","name":"渋谷出口","nameDisplay":"渋谷出口IC","ref":"303","icType":"IC","lat":35.6561884,"lng":139.6974549},{"id":"3854029357","name":"渋谷出口","nameDisplay":"渋谷出口IC","ref":"302","icType":"IC","lat":35.6582534,"lng":139.7050949},{"id":"2591841671","name":"出流原PA/スマートIC（西行き）","nameDisplay":"出流原PA/スマートIC（西行き）","ref":null,"icType":"SA_PA","lat":36.3659976,"lng":139.5510113},{"id":"2591592957","name":"出流原PA/スマートIC（東行き）","nameDisplay":"出流原PA/スマートIC（東行き）","ref":null,"icType":"SA_PA","lat":36.3690158,"lng":139.5444399},{"id":"295393445","name":"初台出口","nameDisplay":"初台出口IC","ref":"406","icType":"IC","lat":35.6784453,"lng":139.6804588},{"id":"919617354","name":"初台南","nameDisplay":"初台南IC","ref":"C23","icType":"IC","lat":35.6729149,"lng":139.6875891},{"id":"390321838","name":"所沢 IC","nameDisplay":"所沢 IC","ref":"3","icType":"IC","lat":35.8052749,"lng":139.5332979},{"id":"390321862","name":"所沢 IC","nameDisplay":"所沢 IC","ref":"3","icType":"IC","lat":35.811305,"lng":139.5284024},{"id":"370270524","name":"小松川JCT","nameDisplay":"小松川JCT","ref":"C45","icType":"JCT","lat":35.701869,"lng":139.859322},{"id":"600726158","name":"小松川JCT","nameDisplay":"小松川JCT","ref":null,"icType":"JCT","lat":35.6991133,"lng":139.8649092},{"id":"7119720207","name":"小松川出口","nameDisplay":"小松川出口IC","ref":"703","icType":"IC","lat":35.6992607,"lng":139.8636174},{"id":"739113434","name":"小松川入口","nameDisplay":"小松川入口IC","ref":"703","icType":"IC","lat":35.6990592,"lng":139.8628825},{"id":"370270147","name":"小菅","nameDisplay":"小菅IC","ref":"C40","icType":"IC","lat":35.7507722,"lng":139.8210092},{"id":"762825952","name":"小菅","nameDisplay":"小菅IC","ref":"C40","icType":"IC","lat":35.7479529,"lng":139.8217273},{"id":"309609006","name":"小菅JCT","nameDisplay":"小菅JCT","ref":null,"icType":"JCT","lat":35.7540854,"lng":139.817966},{"id":"309692515","name":"小菅JCT","nameDisplay":"小菅JCT","ref":null,"icType":"JCT","lat":35.7517331,"lng":139.8209394},{"id":"309692532","name":"小菅JCT","nameDisplay":"小菅JCT","ref":null,"icType":"JCT","lat":35.7540443,"lng":139.8181818},{"id":"559443282","name":"小菅JCT","nameDisplay":"小菅JCT","ref":null,"icType":"JCT","lat":35.7517415,"lng":139.8210473},{"id":"559445932","name":"小菅JCT","nameDisplay":"小菅JCT","ref":null,"icType":"JCT","lat":35.7576175,"lng":139.8203529},{"id":"559445943","name":"小菅JCT","nameDisplay":"小菅JCT","ref":null,"icType":"JCT","lat":35.7570649,"lng":139.8205333},{"id":"603584647","name":"小伝馬町","nameDisplay":"小伝馬町IC","ref":null,"icType":"IC","lat":35.6907607,"lng":139.77846},{"id":"1691781711","name":"小伝馬町","nameDisplay":"小伝馬町IC","ref":null,"icType":"IC","lat":35.6906989,"lng":139.7785147},{"id":"1054155404","name":"小伝馬町三丁目","nameDisplay":"小伝馬町三丁目IC","ref":null,"icType":"IC","lat":35.6914251,"lng":139.7795772},{"id":"1691781364","name":"小伝馬町三丁目","nameDisplay":"小伝馬町三丁目IC","ref":null,"icType":"IC","lat":35.6913582,"lng":139.7796332},{"id":"373151903","name":"小田原IC","nameDisplay":"小田原IC","ref":"5","icType":"IC","lat":35.2555752,"lng":139.1733105},{"id":"733937846","name":"小田原IC","nameDisplay":"小田原IC","ref":"5","icType":"IC","lat":35.2556514,"lng":139.1732566},{"id":"4717730015","name":"小田原PA（下り）","nameDisplay":"小田原PA（下り）","ref":null,"icType":"SA_PA","lat":35.2878806,"lng":139.173785},{"id":"257059180","name":"小田原西IC","nameDisplay":"小田原西IC","ref":"1","icType":"IC","lat":35.2480566,"lng":139.1329464},{"id":"358059663","name":"小田原西IC","nameDisplay":"小田原西IC","ref":null,"icType":"IC","lat":35.2448335,"lng":139.1313662},{"id":"358059674","name":"小田原西IC","nameDisplay":"小田原西IC","ref":"1","icType":"IC","lat":35.2459106,"lng":139.1329973},{"id":"373155466","name":"小田原西IC","nameDisplay":"小田原西IC","ref":null,"icType":"IC","lat":35.2457161,"lng":139.1358222},{"id":"4833903346","name":"小田原早川","nameDisplay":"小田原早川IC","ref":null,"icType":"IC","lat":35.2423573,"lng":139.1409311},{"id":"1304796352","name":"小田原東IC","nameDisplay":"小田原東IC","ref":"3","icType":"IC","lat":35.2874153,"lng":139.1724707},{"id":"3827566031","name":"小田原東IC","nameDisplay":"小田原東IC","ref":"3","icType":"IC","lat":35.2852136,"lng":139.1671731},{"id":"252180089","name":"昭和ＩＣ","nameDisplay":"昭和ＩＣIC","ref":"12-2","icType":"IC","lat":36.6129896,"lng":139.0654995},{"id":"252341393","name":"昭和ＩＣ","nameDisplay":"昭和ＩＣIC","ref":"12-2","icType":"IC","lat":36.6177875,"lng":139.068355},{"id":"248019869","name":"松ヶ丘ＩＣ","nameDisplay":"松ヶ丘ＩＣIC","ref":"11","icType":"IC","lat":35.5980377,"lng":140.1489403},{"id":"1581075628","name":"松ヶ丘IC","nameDisplay":"松ヶ丘IC","ref":"11","icType":"IC","lat":35.5867945,"lng":140.1467802},{"id":"2015223049","name":"松井田妙義IC","nameDisplay":"松井田妙義IC","ref":"5","icType":"IC","lat":36.3152355,"lng":138.7739669},{"id":"5436843082","name":"松井田妙義IC","nameDisplay":"松井田妙義IC","ref":"5","icType":"IC","lat":36.3113546,"lng":138.7782936},{"id":"5657620553","name":"松戸IC","nameDisplay":"松戸IC","ref":"83","icType":"IC","lat":35.7604536,"lng":139.903849},{"id":"5658923142","name":"松戸IC","nameDisplay":"松戸IC","ref":"83","icType":"IC","lat":35.7629757,"lng":139.9002079},{"id":"460244925","name":"松尾横芝ＩＣ","nameDisplay":"松尾横芝ＩＣIC","ref":"93","icType":"IC","lat":35.6607762,"lng":140.4326071},{"id":"1830281212","name":"松尾横芝ＩＣ","nameDisplay":"松尾横芝ＩＣIC","ref":null,"icType":"IC","lat":35.6639937,"lng":140.4422448},{"id":"1092777186","name":"沼田ＩＣ","nameDisplay":"沼田ＩＣIC","ref":"13","icType":"IC","lat":36.6600893,"lng":139.068299},{"id":"4464921448","name":"沼田ＩＣ","nameDisplay":"沼田ＩＣIC","ref":"13","icType":"IC","lat":36.6550414,"lng":139.0715321},{"id":"3815555913","name":"菖蒲ＰＡ（外回り）","nameDisplay":"菖蒲ＰＡ（外回り）IC","ref":null,"icType":"IC","lat":36.0350162,"lng":139.5845494},{"id":"3234072142","name":"菖蒲ＰＡ（内回り）","nameDisplay":"菖蒲ＰＡ（内回り）IC","ref":null,"icType":"IC","lat":36.0404373,"lng":139.5932616},{"id":"1002626398","name":"上河内SA (下り);上河内スマートIC","nameDisplay":"上河内SA (下り);上河内スマートIC","ref":"10-1","icType":"SA_PA","lat":36.6856582,"lng":139.8881263},{"id":"370262008","name":"上河内SA (上り);上河内スマートIC","nameDisplay":"上河内SA (上り);上河内スマートIC","ref":"10-1","icType":"SA_PA","lat":36.6945396,"lng":139.8929482},{"id":"253713844","name":"上川井","nameDisplay":"上川井IC","ref":null,"icType":"IC","lat":35.4945085,"lng":139.4988396},{"id":"1325473791","name":"上武IC","nameDisplay":"上武IC","ref":null,"icType":"IC","lat":36.2000596,"lng":139.3344033},{"id":"3816229037","name":"上武IC","nameDisplay":"上武IC","ref":null,"icType":"IC","lat":36.2045081,"lng":139.3320351},{"id":"8365929678","name":"上武IC","nameDisplay":"上武IC","ref":null,"icType":"IC","lat":36.2030399,"lng":139.3309159},{"id":"2093245861","name":"上野","nameDisplay":"上野IC","ref":"183","icType":"IC","lat":35.7069536,"lng":139.7762752},{"id":"3767284426","name":"上野","nameDisplay":"上野IC","ref":"183","icType":"IC","lat":35.708314,"lng":139.7763063},{"id":"626659318","name":"上野原IC","nameDisplay":"上野原IC","ref":"9","icType":"IC","lat":35.621757,"lng":139.1208106},{"id":"1598704090","name":"上野原IC","nameDisplay":"上野原IC","ref":"9","icType":"IC","lat":35.6216288,"lng":139.1141558},{"id":"1396633415","name":"上矢部ＩＣ","nameDisplay":"上矢部ＩＣIC","ref":"15","icType":"IC","lat":35.4167106,"lng":139.5368383},{"id":"390127404","name":"上里ＳＡ（下り）、スマートＩＣ","nameDisplay":"上里ＳＡ（下り）、スマートＩＣIC","ref":"8-1","icType":"IC","lat":36.2536004,"lng":139.1243538},{"id":"334528197","name":"上里ＳＡ（上り）、スマートＩＣ","nameDisplay":"上里ＳＡ（上り）、スマートＩＣIC","ref":"8-1","icType":"IC","lat":36.2569006,"lng":139.1150828},{"id":"2468861173","name":"上籠谷ランプ","nameDisplay":"上籠谷ランプIC","ref":null,"icType":"IC","lat":36.5073917,"lng":139.9875871},{"id":"2468861211","name":"上籠谷ランプ","nameDisplay":"上籠谷ランプIC","ref":null,"icType":"IC","lat":36.515333,"lng":139.9861755},{"id":"2604149086","name":"常総IC","nameDisplay":"常総IC","ref":"75","icType":"IC","lat":36.0786189,"lng":139.9868301},{"id":"2604149093","name":"常総IC","nameDisplay":"常総IC","ref":"75","icType":"IC","lat":36.0771265,"lng":139.9793977},{"id":"1802945739","name":"常盤台ＩＣ出口","nameDisplay":"常盤台ＩＣ出口IC","ref":"8","icType":"IC","lat":35.4683201,"lng":139.5926913},{"id":"552871529","name":"常陸那珂港IC","nameDisplay":"常陸那珂港IC","ref":null,"icType":"IC","lat":36.4095304,"lng":140.6055579},{"id":"552871568","name":"常陸那珂港IC","nameDisplay":"常陸那珂港IC","ref":null,"icType":"IC","lat":36.4035715,"lng":140.6072529},{"id":"552874378","name":"常陸那珂港IC","nameDisplay":"常陸那珂港IC","ref":null,"icType":"IC","lat":36.4036491,"lng":140.6015739},{"id":"1226695737","name":"新井宿","nameDisplay":"新井宿IC","ref":"S11","icType":"IC","lat":35.8461625,"lng":139.7428021},{"id":"3587648670","name":"新横浜","nameDisplay":"新横浜IC","ref":"756","icType":"IC","lat":35.5175158,"lng":139.6024387},{"id":"6380254537","name":"新横浜","nameDisplay":"新横浜IC","ref":"755","icType":"IC","lat":35.5153665,"lng":139.6087934},{"id":"263988670","name":"新郷","nameDisplay":"新郷IC","ref":"S07","icType":"IC","lat":35.8158855,"lng":139.759741},{"id":"308934679","name":"新郷","nameDisplay":"新郷IC","ref":"S08","icType":"IC","lat":35.8246526,"lng":139.7596685},{"id":"1683205575","name":"新空港IC","nameDisplay":"新空港IC","ref":null,"icType":"IC","lat":35.7788442,"lng":140.3800406},{"id":"1684605829","name":"新空港IC","nameDisplay":"新空港IC","ref":null,"icType":"IC","lat":35.7766383,"lng":140.3816578},{"id":"297138400","name":"新桜ヶ丘","nameDisplay":"新桜ヶ丘IC","ref":null,"icType":"IC","lat":35.4525419,"lng":139.5627054},{"id":"310160727","name":"新桜ヶ丘","nameDisplay":"新桜ヶ丘IC","ref":null,"icType":"IC","lat":35.4534098,"lng":139.5594989},{"id":"4109992217","name":"新山下","nameDisplay":"新山下IC","ref":"352","icType":"IC","lat":35.4430989,"lng":139.6539299},{"id":"7105141617","name":"新山下出口","nameDisplay":"新山下出口IC","ref":"351","icType":"IC","lat":35.4376967,"lng":139.6638575},{"id":"295393488","name":"新宿出口","nameDisplay":"新宿出口IC","ref":"404","icType":"IC","lat":35.6827815,"lng":139.6887155},{"id":"1237984803","name":"新宿出口","nameDisplay":"新宿出口IC","ref":"405","icType":"IC","lat":35.6810578,"lng":139.6928134},{"id":"7328128663","name":"新秦野IC","nameDisplay":"新秦野IC","ref":"4","icType":"IC","lat":35.3837123,"lng":139.1534361},{"id":"7328142399","name":"新秦野IC","nameDisplay":"新秦野IC","ref":"4","icType":"IC","lat":35.3861512,"lng":139.1565009},{"id":"2108155786","name":"新都心","nameDisplay":"新都心IC","ref":"S204","icType":"IC","lat":35.8975565,"lng":139.6467127},{"id":"2108155789","name":"新都心","nameDisplay":"新都心IC","ref":"S204","icType":"IC","lat":35.897774,"lng":139.6485316},{"id":"2879195923","name":"新都心","nameDisplay":"新都心IC","ref":"S203","icType":"IC","lat":35.89651,"lng":139.6293262},{"id":"2879195924","name":"新都心","nameDisplay":"新都心IC","ref":"S203","icType":"IC","lat":35.8965469,"lng":139.6294762},{"id":"718497073","name":"新都心西","nameDisplay":"新都心西IC","ref":"S201","icType":"IC","lat":35.894393,"lng":139.6150914},{"id":"2877270592","name":"新都心西","nameDisplay":"新都心西IC","ref":"S201","icType":"IC","lat":35.8950322,"lng":139.615882},{"id":"2877276686","name":"新都心西","nameDisplay":"新都心西IC","ref":"S202","icType":"IC","lat":35.8980708,"lng":139.6236246},{"id":"2877276688","name":"新都心西","nameDisplay":"新都心西IC","ref":"S202","icType":"IC","lat":35.8982787,"lng":139.6244635},{"id":"1928907427","name":"新板橋出口","nameDisplay":"新板橋出口IC","ref":"C29","icType":"IC","lat":35.7492281,"lng":139.7159049},{"id":"31254353","name":"新富町","nameDisplay":"新富町IC","ref":"13","icType":"IC","lat":35.6719894,"lng":139.7722359},{"id":"588391376","name":"新富町","nameDisplay":"新富町IC","ref":"14","icType":"IC","lat":35.6703692,"lng":139.7708949},{"id":"297138169","name":"新保土ヶ谷","nameDisplay":"新保土ヶ谷IC","ref":"12","icType":"IC","lat":35.4506868,"lng":139.5717748},{"id":"721669270","name":"新保土ヶ谷","nameDisplay":"新保土ヶ谷IC","ref":null,"icType":"IC","lat":35.4514059,"lng":139.5672566},{"id":"253713872","name":"新保土ヶ谷","nameDisplay":"新保土ヶ谷IC","ref":null,"icType":"IC","lat":35.4493033,"lng":139.571688},{"id":"980047475","name":"新保土ヶ谷","nameDisplay":"新保土ヶ谷IC","ref":"12","icType":"IC","lat":35.4474676,"lng":139.5665742},{"id":"273331636","name":"新保土ヶ谷ＩＣ","nameDisplay":"新保土ヶ谷ＩＣIC","ref":"12","icType":"IC","lat":35.4534612,"lng":139.5789423},{"id":"31300488","name":"新木場","nameDisplay":"新木場IC","ref":"B24","icType":"IC","lat":35.646446,"lng":139.824128},{"id":"31330050","name":"新木場","nameDisplay":"新木場IC","ref":"B24","icType":"IC","lat":35.6465829,"lng":139.8304121},{"id":"31330068","name":"新木場","nameDisplay":"新木場IC","ref":"B25","icType":"IC","lat":35.6474782,"lng":139.8367195},{"id":"1068142976","name":"真岡I.C北ランプ","nameDisplay":"真岡I.C北ランプIC","ref":null,"icType":"IC","lat":36.453197,"lng":139.9774278},{"id":"1068143138","name":"真岡I.C北ランプ","nameDisplay":"真岡I.C北ランプIC","ref":null,"icType":"IC","lat":36.4603828,"lng":139.9801109},{"id":"553005335","name":"真岡IC","nameDisplay":"真岡IC","ref":"11","icType":"IC","lat":36.4496297,"lng":139.9668645},{"id":"1068143142","name":"真岡IC","nameDisplay":"真岡IC","ref":null,"icType":"IC","lat":36.4453462,"lng":139.974753},{"id":"4720357967","name":"真岡IC","nameDisplay":"真岡IC","ref":"11","icType":"IC","lat":36.4431249,"lng":139.9694916},{"id":"6127463650","name":"真岡IC","nameDisplay":"真岡IC","ref":null,"icType":"IC","lat":36.4484718,"lng":139.9758386},{"id":"1068240553","name":"真岡北陵ランプ","nameDisplay":"真岡北陵ランプIC","ref":null,"icType":"IC","lat":36.4734327,"lng":139.9903108},{"id":"1528272039","name":"真岡北陵ランプ","nameDisplay":"真岡北陵ランプIC","ref":null,"icType":"IC","lat":36.4673531,"lng":139.9867839},{"id":"1370195578","name":"真亀JCT","nameDisplay":"真亀JCT","ref":null,"icType":"JCT","lat":35.4995399,"lng":140.430125},{"id":"1905133637","name":"真亀JCT","nameDisplay":"真亀JCT","ref":null,"icType":"JCT","lat":35.502392,"lng":140.4318223},{"id":"1905133798","name":"真亀JCT","nameDisplay":"真亀JCT","ref":null,"icType":"JCT","lat":35.5004896,"lng":140.4280438},{"id":"1905133863","name":"真亀JCT","nameDisplay":"真亀JCT","ref":null,"icType":"JCT","lat":35.4973507,"lng":140.4287448},{"id":"260710829","name":"神田橋","nameDisplay":"神田橋IC","ref":"29","icType":"IC","lat":35.6904857,"lng":139.7622957},{"id":"264871734","name":"神田橋","nameDisplay":"神田橋IC","ref":null,"icType":"IC","lat":35.6906944,"lng":139.7616741},{"id":"1070863041","name":"神田橋","nameDisplay":"神田橋IC","ref":"28","icType":"IC","lat":35.6887461,"lng":139.766701},{"id":"9309987594","name":"秦野丹沢SIC","nameDisplay":"秦野丹沢SIC","ref":"3-1","icType":"SIC","lat":35.3973497,"lng":139.1708094},{"id":"9309987602","name":"秦野丹沢SIC","nameDisplay":"秦野丹沢SIC","ref":"3-1","icType":"SIC","lat":35.4025511,"lng":139.1867985},{"id":"243829253","name":"秦野中井ＩＣ","nameDisplay":"秦野中井ＩＣIC","ref":"5-2","icType":"IC","lat":35.3509923,"lng":139.2303475},{"id":"288509478","name":"秦野中井ＩＣ","nameDisplay":"秦野中井ＩＣIC","ref":"5-2","icType":"IC","lat":35.3540232,"lng":139.2385051},{"id":"554206510","name":"壬生IC","nameDisplay":"壬生IC","ref":"9","icType":"IC","lat":36.4572571,"lng":139.819654},{"id":"4460065094","name":"壬生IC","nameDisplay":"壬生IC","ref":"9","icType":"IC","lat":36.4575697,"lng":139.8256314},{"id":"4728798341","name":"壬生PA（西行き）","nameDisplay":"壬生PA（西行き）","ref":null,"icType":"SA_PA","lat":36.4543705,"lng":139.8087421},{"id":"2194044994","name":"壬生PA（東行き）","nameDisplay":"壬生PA（東行き）","ref":null,"icType":"SA_PA","lat":36.4515743,"lng":139.8016015},{"id":"1435658654","name":"須雲川IC","nameDisplay":"須雲川IC","ref":null,"icType":"IC","lat":35.2220984,"lng":139.0825109},{"id":"13051962814","name":"須雲川IC","nameDisplay":"須雲川IC","ref":null,"icType":"IC","lat":35.221981,"lng":139.0820799},{"id":"373690641","name":"逗子ＩＣ","nameDisplay":"逗子ＩＣIC","ref":"6","icType":"IC","lat":35.293735,"lng":139.6186949},{"id":"1062180600","name":"逗子ＩＣ","nameDisplay":"逗子ＩＣIC","ref":"6","icType":"IC","lat":35.2881246,"lng":139.6208002},{"id":"264004434","name":"水戸IC","nameDisplay":"水戸IC","ref":"9","icType":"IC","lat":36.3837344,"lng":140.3865255},{"id":"775506068","name":"水戸IC","nameDisplay":"水戸IC","ref":"9","icType":"IC","lat":36.3793464,"lng":140.3857839},{"id":"552902001","name":"水戸大洗IC","nameDisplay":"水戸大洗IC","ref":"18","icType":"IC","lat":36.3410131,"lng":140.5452865},{"id":"3710792087","name":"水戸大洗IC","nameDisplay":"水戸大洗IC","ref":"18","icType":"IC","lat":36.3374244,"lng":140.541592},{"id":"810010017","name":"水戸南IC","nameDisplay":"水戸南IC","ref":"17","icType":"IC","lat":36.3280974,"lng":140.4854786},{"id":"4503651976","name":"水戸南IC","nameDisplay":"水戸南IC","ref":"17","icType":"IC","lat":36.3303376,"lng":140.4900038},{"id":"309864204","name":"水戸北スマートIC","nameDisplay":"水戸北スマートIC","ref":"9-1","icType":"SIC","lat":36.4145947,"lng":140.4220854},{"id":"6832353492","name":"水戸北スマートIC","nameDisplay":"水戸北スマートIC","ref":"9-1","icType":"SIC","lat":36.4198387,"lng":140.429077},{"id":"767355183","name":"水上IC","nameDisplay":"水上IC","ref":"15","icType":"IC","lat":36.7430962,"lng":138.9773906},{"id":"767355444","name":"水上IC","nameDisplay":"水上IC","ref":"15","icType":"IC","lat":36.7494921,"lng":138.9735408},{"id":"255525335","name":"杉田出口","nameDisplay":"杉田出口IC","ref":"B03","icType":"IC","lat":35.3879649,"lng":139.619109},{"id":"364521160","name":"杉田出口","nameDisplay":"杉田出口IC","ref":"B02","icType":"IC","lat":35.3816538,"lng":139.6283841},{"id":"1064103756","name":"成田IC","nameDisplay":"成田IC","ref":"10","icType":"IC","lat":35.7821563,"lng":140.351815},{"id":"158071621","name":"成田JCT","nameDisplay":"成田JCT","ref":"9-1","icType":"JCT","lat":35.777497,"lng":140.3412988},{"id":"1688367287","name":"成田JCT","nameDisplay":"成田JCT","ref":"9-1","icType":"JCT","lat":35.7820201,"lng":140.3489103},{"id":"3805328183","name":"成田JCT","nameDisplay":"成田JCT","ref":"9-1","icType":"JCT","lat":35.7876024,"lng":140.3471822},{"id":"1705692681","name":"星川ＩＣ入口","nameDisplay":"星川ＩＣ入口IC","ref":"10","icType":"IC","lat":35.4596308,"lng":139.5868151},{"id":"5470031352","name":"晴海","nameDisplay":"晴海IC","ref":"1002","icType":"IC","lat":35.6546181,"lng":139.7825753},{"id":"5470031356","name":"晴海","nameDisplay":"晴海IC","ref":"1002","icType":"IC","lat":35.6542242,"lng":139.7826955},{"id":"2468861268","name":"清原工業団地南ランプ","nameDisplay":"清原工業団地南ランプIC","ref":null,"icType":"IC","lat":36.5308798,"lng":139.986431},{"id":"1694598881","name":"清洲橋","nameDisplay":"清洲橋IC","ref":"603","icType":"IC","lat":35.6836582,"lng":139.7899435},{"id":"10132686105","name":"清洲橋出口","nameDisplay":"清洲橋出口IC","ref":"603","icType":"IC","lat":35.6828845,"lng":139.7887769},{"id":"31337300","name":"清新町","nameDisplay":"清新町IC","ref":"C47","icType":"IC","lat":35.6692892,"lng":139.8496293},{"id":"610741040","name":"清滝IC","nameDisplay":"清滝IC","ref":"5","icType":"IC","lat":36.7415829,"lng":139.5671555},{"id":"3148677149","name":"清滝IC","nameDisplay":"清滝IC","ref":"5","icType":"IC","lat":36.7396143,"lng":139.5656232},{"id":"273331184","name":"生麦JCT","nameDisplay":"生麦JCT","ref":null,"icType":"JCT","lat":35.4935879,"lng":139.6762182},{"id":"368358966","name":"生麦JCT","nameDisplay":"生麦JCT","ref":null,"icType":"JCT","lat":35.4901552,"lng":139.6676614},{"id":"1032992501","name":"生麦JCT","nameDisplay":"生麦JCT","ref":null,"icType":"JCT","lat":35.4869788,"lng":139.6737505},{"id":"3585004444","name":"生麦JCT","nameDisplay":"生麦JCT","ref":null,"icType":"JCT","lat":35.4893815,"lng":139.6657216},{"id":"3585004463","name":"生麦JCT","nameDisplay":"生麦JCT","ref":null,"icType":"JCT","lat":35.4890026,"lng":139.672487},{"id":"3585004484","name":"生麦JCT","nameDisplay":"生麦JCT","ref":null,"icType":"JCT","lat":35.4926724,"lng":139.6692036},{"id":"3585004487","name":"生麦JCT","nameDisplay":"生麦JCT","ref":null,"icType":"JCT","lat":35.4925978,"lng":139.6677937},{"id":"5632368368","name":"生麦JCT","nameDisplay":"生麦JCT","ref":null,"icType":"JCT","lat":35.4929526,"lng":139.6745758},{"id":"373150219","name":"西湘PA(下り)","nameDisplay":"西湘PA(下り)","ref":null,"icType":"SA_PA","lat":35.2762824,"lng":139.2047277},{"id":"4068349272","name":"西湘PA(上り)","nameDisplay":"西湘PA(上り)","ref":null,"icType":"SA_PA","lat":35.2868839,"lng":139.2334252},{"id":"805155345","name":"西湘二宮IC","nameDisplay":"西湘二宮IC","ref":"1","icType":"IC","lat":35.2961942,"lng":139.2615761},{"id":"267805268","name":"西新宿JCT","nameDisplay":"西新宿JCT","ref":null,"icType":"JCT","lat":35.6807621,"lng":139.6855413},{"id":"308925199","name":"西新宿JCT","nameDisplay":"西新宿JCT","ref":null,"icType":"JCT","lat":35.6889467,"lng":139.6823751},{"id":"3851809274","name":"西新宿JCT","nameDisplay":"西新宿JCT","ref":null,"icType":"JCT","lat":35.6762998,"lng":139.687727},{"id":"567872146","name":"西神田","nameDisplay":"西神田IC","ref":"501","icType":"IC","lat":35.6954386,"lng":139.7527594},{"id":"567872147","name":"西神田","nameDisplay":"西神田IC","ref":"501","icType":"IC","lat":35.6956532,"lng":139.7528105},{"id":"2130008048","name":"西神田出入口","nameDisplay":"西神田出入口IC","ref":"501","icType":"IC","lat":35.6978831,"lng":139.7524944},{"id":"2130008050","name":"西神田出入口","nameDisplay":"西神田出入口IC","ref":"501","icType":"IC","lat":35.6979158,"lng":139.7522532},{"id":"309695508","name":"西池袋","nameDisplay":"西池袋IC","ref":"C26","icType":"IC","lat":35.7311776,"lng":139.6984842},{"id":"1143517119","name":"西池袋","nameDisplay":"西池袋IC","ref":"C25","icType":"IC","lat":35.7227303,"lng":139.692719},{"id":"370260604","name":"西那須野塩原IC","nameDisplay":"西那須野塩原IC","ref":"12","icType":"IC","lat":36.9179137,"lng":139.9478125},{"id":"1308225808","name":"西那須野塩原IC","nameDisplay":"西那須野塩原IC","ref":"12","icType":"IC","lat":36.9138381,"lng":139.9394407},{"id":"253119566","name":"青梅IC","nameDisplay":"青梅IC","ref":"44","icType":"IC","lat":35.7982224,"lng":139.3249962},{"id":"270898760","name":"青梅IC","nameDisplay":"青梅IC","ref":"44","icType":"IC","lat":35.7965024,"lng":139.3199245},{"id":"7108930951","name":"青梅街道IC（仮称）","nameDisplay":"青梅街道IC（仮称）IC","ref":"41","icType":"IC","lat":35.7230163,"lng":139.5920227},{"id":"7108930960","name":"青梅街道IC（仮称）","nameDisplay":"青梅街道IC（仮称）IC","ref":"41","icType":"IC","lat":35.7299319,"lng":139.5904596},{"id":"264004512","name":"石岡小美玉スマートIC","nameDisplay":"石岡小美玉スマートIC","ref":"7-1","icType":"SIC","lat":36.2227083,"lng":140.2842333},{"id":"504138309","name":"石岡小美玉スマートIC","nameDisplay":"石岡小美玉スマートIC","ref":"7-1","icType":"SIC","lat":36.2176919,"lng":140.2774926},{"id":"6140348813","name":"石橋IC","nameDisplay":"石橋IC","ref":"9","icType":"IC","lat":35.2284376,"lng":139.1423286},{"id":"260715110","name":"石川ＰＡ（下り）","nameDisplay":"石川ＰＡ（下り）IC","ref":null,"icType":"IC","lat":35.6790853,"lng":139.3740524},{"id":"267803464","name":"石川ＰＡ（上り）","nameDisplay":"石川ＰＡ（上り）IC","ref":null,"icType":"IC","lat":35.6782691,"lng":139.3719933},{"id":"2324584168","name":"石川町","nameDisplay":"石川町IC","ref":"353","icType":"IC","lat":35.4394062,"lng":139.6449262},{"id":"364548786","name":"石川町JCT","nameDisplay":"石川町JCT","ref":null,"icType":"JCT","lat":35.4403382,"lng":139.6471555},{"id":"447800585","name":"石川町JCT","nameDisplay":"石川町JCT","ref":null,"icType":"JCT","lat":35.4373193,"lng":139.6387681},{"id":"982266259","name":"石川町JCT","nameDisplay":"石川町JCT","ref":null,"icType":"JCT","lat":35.4415965,"lng":139.6403225},{"id":"4464869606","name":"赤城ＩＣ、赤城ＰＡ（下り）","nameDisplay":"赤城ＩＣ、赤城ＰＡ（下り）IC","ref":"12-1","icType":"IC","lat":36.5345834,"lng":139.0474545},{"id":"252340730","name":"赤城ＩＣ、赤城ＰＡ（上り）","nameDisplay":"赤城ＩＣ、赤城ＰＡ（上り）IC","ref":"12-1","icType":"IC","lat":36.5398778,"lng":139.0491695},{"id":"303337575","name":"赤城高原ＳＡ（下り）","nameDisplay":"赤城高原ＳＡ（下り）IC","ref":null,"icType":"IC","lat":36.5989212,"lng":139.0635406},{"id":"942206648","name":"赤城高原ＳＡ（上り）","nameDisplay":"赤城高原ＳＡ（上り）IC","ref":null,"icType":"IC","lat":36.6032889,"lng":139.0627441},{"id":"309604026","name":"千住新橋","nameDisplay":"千住新橋IC","ref":"C37","icType":"IC","lat":35.7621238,"lng":139.7969988},{"id":"309692554","name":"千住新橋","nameDisplay":"千住新橋IC","ref":"C38","icType":"IC","lat":35.7592116,"lng":139.8100899},{"id":"775504248","name":"千代田PA（下り）","nameDisplay":"千代田PA（下り）","ref":null,"icType":"SA_PA","lat":36.144584,"lng":140.2094898},{"id":"264005264","name":"千代田PA（上り）","nameDisplay":"千代田PA（上り）","ref":null,"icType":"SA_PA","lat":36.1489145,"lng":140.2140024},{"id":"206410324","name":"千代田石岡IC","nameDisplay":"千代田石岡IC","ref":"7","icType":"IC","lat":36.1707191,"lng":140.2418634},{"id":"899052427","name":"千代田石岡IC","nameDisplay":"千代田石岡IC","ref":"7","icType":"IC","lat":36.1763152,"lng":140.2469485},{"id":"4361060070","name":"千鳥町","nameDisplay":"千鳥町IC","ref":"B32","icType":"IC","lat":35.6714041,"lng":139.9260834},{"id":"1830268941","name":"千葉東ＩＣ","nameDisplay":"千葉東ＩＣIC","ref":null,"icType":"IC","lat":35.6000483,"lng":140.1594833},{"id":"626557444","name":"千葉東ＪＣＴ","nameDisplay":"千葉東ＪＣＴIC","ref":"10","icType":"IC","lat":35.6082045,"lng":140.1524241},{"id":"1581111513","name":"千葉東JCT","nameDisplay":"千葉東JCT","ref":"10","icType":"JCT","lat":35.6001548,"lng":140.149563},{"id":"1960360318","name":"千葉東ＪＣＴ","nameDisplay":"千葉東ＪＣＴIC","ref":null,"icType":"IC","lat":35.6014741,"lng":140.1567033},{"id":"156303475","name":"千葉北IC","nameDisplay":"千葉北IC","ref":"6","icType":"IC","lat":35.6699659,"lng":140.115795},{"id":"279162596","name":"千葉北IC","nameDisplay":"千葉北IC","ref":"6","icType":"IC","lat":35.6713222,"lng":140.1215788},{"id":"443625964","name":"千葉北IC","nameDisplay":"千葉北IC","ref":null,"icType":"IC","lat":35.6711244,"lng":140.1216757},{"id":"1830188712","name":"千葉北IC","nameDisplay":"千葉北IC","ref":null,"icType":"IC","lat":35.6735933,"lng":140.1229808},{"id":"252682068","name":"川越 IC","nameDisplay":"川越 IC","ref":"4","icType":"IC","lat":35.8911507,"lng":139.4608789},{"id":"1016073496","name":"川越 IC","nameDisplay":"川越 IC","ref":"4","icType":"IC","lat":35.8964338,"lng":139.4572183},{"id":"206411410","name":"川口JCT","nameDisplay":"川口JCT","ref":"70","icType":"JCT","lat":35.8531821,"lng":139.738406},{"id":"263988694","name":"川口JCT","nameDisplay":"川口JCT","ref":null,"icType":"JCT","lat":35.8493258,"lng":139.7347364},{"id":"309305322","name":"川口JCT","nameDisplay":"川口JCT","ref":"70","icType":"JCT","lat":35.8525497,"lng":139.7290025},{"id":"563295988","name":"川口JCT","nameDisplay":"川口JCT","ref":"1","icType":"JCT","lat":35.8512461,"lng":139.7337838},{"id":"563298579","name":"川口JCT","nameDisplay":"川口JCT","ref":"1","icType":"JCT","lat":35.8548809,"lng":139.7342613},{"id":"563298581","name":"川口JCT","nameDisplay":"川口JCT","ref":"1","icType":"JCT","lat":35.8564968,"lng":139.7342918},{"id":"2550132181","name":"川口西","nameDisplay":"川口西IC","ref":"63","icType":"IC","lat":35.8451446,"lng":139.6930268},{"id":"3817848693","name":"川口中央","nameDisplay":"川口中央IC","ref":"64","icType":"IC","lat":35.8523284,"lng":139.7276293},{"id":"206411408","name":"川口東","nameDisplay":"川口東IC","ref":"71","icType":"IC","lat":35.8521914,"lng":139.749237},{"id":"36421509","name":"川崎浮島JCT","nameDisplay":"川崎浮島JCT","ref":null,"icType":"JCT","lat":35.512138,"lng":139.7858946},{"id":"36421510","name":"川崎浮島JCT","nameDisplay":"川崎浮島JCT","ref":null,"icType":"JCT","lat":35.5120343,"lng":139.7859938},{"id":"36421538","name":"川崎浮島JCT","nameDisplay":"川崎浮島JCT","ref":null,"icType":"JCT","lat":35.520942,"lng":139.7871653},{"id":"448039309","name":"川崎浮島JCT","nameDisplay":"川崎浮島JCT","ref":"1","icType":"JCT","lat":35.5176761,"lng":139.7935118},{"id":"739475893","name":"川崎浮島JCT","nameDisplay":"川崎浮島JCT","ref":null,"icType":"JCT","lat":35.5168421,"lng":139.7907955},{"id":"2949012792","name":"川上","nameDisplay":"川上IC","ref":null,"icType":"IC","lat":35.4305414,"lng":139.5509172},{"id":"1307020186","name":"川上ＩＣ","nameDisplay":"川上ＩＣIC","ref":"14","icType":"IC","lat":35.4331148,"lng":139.5535019},{"id":"1396640850","name":"川上ＩＣ","nameDisplay":"川上ＩＣIC","ref":"14","icType":"IC","lat":35.4293613,"lng":139.5485203},{"id":"7403970226","name":"川島・高山IC","nameDisplay":"川島・高山IC","ref":null,"icType":"IC","lat":36.5237949,"lng":138.9828757},{"id":"8582750728","name":"川島・高山IC","nameDisplay":"川島・高山IC","ref":null,"icType":"IC","lat":36.5238767,"lng":138.9782263},{"id":"504769374","name":"川島ＩＣ","nameDisplay":"川島ＩＣIC","ref":"52","icType":"IC","lat":35.9830943,"lng":139.4693268},{"id":"504769477","name":"川島ＩＣ","nameDisplay":"川島ＩＣIC","ref":"52","icType":"IC","lat":35.9804292,"lng":139.4640337},{"id":"309603951","name":"扇大橋","nameDisplay":"扇大橋IC","ref":"C35","icType":"IC","lat":35.7626586,"lng":139.7653428},{"id":"1533897814","name":"船橋IC","nameDisplay":"船橋IC","ref":"4","icType":"IC","lat":35.6998608,"lng":139.9645943},{"id":"31337397","name":"船堀橋","nameDisplay":"船堀橋IC","ref":"C46","icType":"IC","lat":35.6845708,"lng":139.8553253},{"id":"1092626371","name":"前橋IC","nameDisplay":"前橋IC","ref":"11","icType":"IC","lat":36.3706622,"lng":139.0290986},{"id":"1092626424","name":"前橋IC","nameDisplay":"前橋IC","ref":"11","icType":"IC","lat":36.3784232,"lng":139.0273167},{"id":"549377635","name":"前橋南IC","nameDisplay":"前橋南IC","ref":"1","icType":"IC","lat":36.3335957,"lng":139.095188},{"id":"4732514168","name":"前橋南IC","nameDisplay":"前橋南IC","ref":"1","icType":"IC","lat":36.3341001,"lng":139.1031357},{"id":"241206275","name":"蘇我IC","nameDisplay":"蘇我IC","ref":"12","icType":"IC","lat":35.5598112,"lng":140.1388683},{"id":"1679657855","name":"蘇我IC","nameDisplay":"蘇我IC","ref":"12","icType":"IC","lat":35.572005,"lng":140.1403838},{"id":"11775214928","name":"匝瑳IC","nameDisplay":"匝瑳IC","ref":null,"icType":"IC","lat":35.6900886,"lng":140.5423933},{"id":"8858738165","name":"匝瑳西IC","nameDisplay":"匝瑳西IC","ref":null,"icType":"IC","lat":35.6826794,"lng":140.5269407},{"id":"9203645432","name":"匝瑳西IC","nameDisplay":"匝瑳西IC","ref":null,"icType":"IC","lat":35.6803805,"lng":140.5236321},{"id":"567867780","name":"早稲田","nameDisplay":"早稲田IC","ref":"503","icType":"IC","lat":35.7102054,"lng":139.7323089},{"id":"373155396","name":"早川IC","nameDisplay":"早川IC","ref":"6","icType":"IC","lat":35.2418564,"lng":139.1508769},{"id":"373152334","name":"早川分岐","nameDisplay":"早川分岐IC","ref":null,"icType":"IC","lat":35.2434604,"lng":139.1557538},{"id":"4833903403","name":"早川分岐","nameDisplay":"早川分岐IC","ref":null,"icType":"IC","lat":35.2396134,"lng":139.149293},{"id":"253119971","name":"相原","nameDisplay":"相原IC","ref":null,"icType":"IC","lat":35.6115131,"lng":139.3404541},{"id":"3438521444","name":"相模原ＩＣ","nameDisplay":"相模原ＩＣIC","ref":"34","icType":"IC","lat":35.5781396,"lng":139.296359},{"id":"4423997227","name":"相模原ＩＣ","nameDisplay":"相模原ＩＣIC","ref":"34","icType":"IC","lat":35.585509,"lng":139.2905043},{"id":"1078986955","name":"相模原愛川ＩＣ","nameDisplay":"相模原愛川ＩＣIC","ref":"33","icType":"IC","lat":35.5248422,"lng":139.3511745},{"id":"1078987003","name":"相模原愛川ＩＣ","nameDisplay":"相模原愛川ＩＣIC","ref":"33","icType":"IC","lat":35.5205525,"lng":139.357148},{"id":"625658135","name":"相模湖IC","nameDisplay":"相模湖IC","ref":"8","icType":"IC","lat":35.618685,"lng":139.1651356},{"id":"1654905599","name":"相模湖IC","nameDisplay":"相模湖IC","ref":"8","icType":"IC","lat":35.6228006,"lng":139.1700942},{"id":"260714640","name":"相模湖東ＩＣ","nameDisplay":"相模湖東ＩＣIC","ref":"7","icType":"IC","lat":35.6223104,"lng":139.1970636},{"id":"308788512","name":"草加","nameDisplay":"草加IC","ref":"72","icType":"IC","lat":35.8483646,"lng":139.7753962},{"id":"360601873","name":"草加","nameDisplay":"草加IC","ref":"72","icType":"IC","lat":35.8494124,"lng":139.7948469},{"id":"3191867911","name":"草加","nameDisplay":"草加IC","ref":"72","icType":"IC","lat":35.8484028,"lng":139.7767973},{"id":"1250019206","name":"足利ＩＣ","nameDisplay":"足利ＩＣIC","ref":"6","icType":"IC","lat":36.3632386,"lng":139.4795993},{"id":"1250019576","name":"足利ＩＣ","nameDisplay":"足利ＩＣIC","ref":"6","icType":"IC","lat":36.3626451,"lng":139.4885785},{"id":"308934664","name":"足立入谷","nameDisplay":"足立入谷IC","ref":"S06","icType":"IC","lat":35.8082088,"lng":139.7588261},{"id":"448034791","name":"袖ヶ浦","nameDisplay":"袖ヶ浦IC","ref":"3","icType":"IC","lat":35.4162793,"lng":139.9486282},{"id":"448036574","name":"袖ヶ浦","nameDisplay":"袖ヶ浦IC","ref":"3","icType":"IC","lat":35.4078262,"lng":139.9624624},{"id":"448034680","name":"袖ヶ浦IC","nameDisplay":"袖ヶ浦IC","ref":"3","icType":"IC","lat":35.4138489,"lng":139.9539207},{"id":"448036563","name":"袖ヶ浦IC","nameDisplay":"袖ヶ浦IC","ref":null,"icType":"IC","lat":35.4115295,"lng":139.9582987},{"id":"7161528101","name":"多古IC","nameDisplay":"多古IC","ref":"92","icType":"IC","lat":35.7335857,"lng":140.440737},{"id":"7195581741","name":"多古IC","nameDisplay":"多古IC","ref":"92","icType":"IC","lat":35.7438255,"lng":140.43271},{"id":"5880197712","name":"太田強戸ＰA ／ スマートＩＣ","nameDisplay":"太田強戸ＰA ／ スマートＩＣIC","ref":"4-1","icType":"IC","lat":36.3370344,"lng":139.3516846},{"id":"5880197765","name":"太田強戸ＰA ／ スマートＩＣ","nameDisplay":"太田強戸ＰA ／ スマートＩＣIC","ref":"4-1","icType":"IC","lat":36.3411215,"lng":139.3445361},{"id":"1250003765","name":"太田桐生IC","nameDisplay":"太田桐生IC","ref":"5","icType":"IC","lat":36.3316143,"lng":139.3923898},{"id":"6786895956","name":"太田桐生IC","nameDisplay":"太田桐生IC","ref":"5","icType":"IC","lat":36.3298604,"lng":139.3847232},{"id":"506045417","name":"太田藪塚IC","nameDisplay":"太田藪塚IC","ref":"4","icType":"IC","lat":36.34701,"lng":139.2734416},{"id":"4838508964","name":"太田藪塚IC","nameDisplay":"太田藪塚IC","ref":"4","icType":"IC","lat":36.3466576,"lng":139.2812438},{"id":"295550844","name":"打越","nameDisplay":"打越IC","ref":null,"icType":"IC","lat":35.6399381,"lng":139.3519254},{"id":"267805281","name":"代々木ＰＡ","nameDisplay":"代々木ＰＡIC","ref":null,"icType":"IC","lat":35.6807353,"lng":139.6970837},{"id":"267810144","name":"代々木出口","nameDisplay":"代々木出口IC","ref":"403","icType":"IC","lat":35.6804647,"lng":139.6968121},{"id":"252398930","name":"代IC","nameDisplay":"代IC","ref":null,"icType":"IC","lat":36.173655,"lng":139.3656911},{"id":"252839034","name":"代IC","nameDisplay":"代IC","ref":null,"icType":"IC","lat":36.1716762,"lng":139.3741398},{"id":"297945194","name":"代官町","nameDisplay":"代官町IC","ref":"25","icType":"IC","lat":35.6893707,"lng":139.7484498},{"id":"577517536","name":"代官町","nameDisplay":"代官町IC","ref":"25","icType":"IC","lat":35.6894225,"lng":139.7486635},{"id":"1866081909","name":"代官町","nameDisplay":"代官町IC","ref":null,"icType":"IC","lat":35.6893322,"lng":139.7525295},{"id":"31236584","name":"台場","nameDisplay":"台場IC","ref":"1101","icType":"IC","lat":35.6349354,"lng":139.7686834},{"id":"31298908","name":"大井","nameDisplay":"大井IC","ref":"B21","icType":"IC","lat":35.6130837,"lng":139.7577128},{"id":"3387909450","name":"大井JCT","nameDisplay":"大井JCT","ref":null,"icType":"JCT","lat":35.6090956,"lng":139.7528699},{"id":"6534476215","name":"大井JCT","nameDisplay":"大井JCT","ref":null,"icType":"JCT","lat":35.6105939,"lng":139.7557543},{"id":"243829290","name":"大井松田ＩＣ","nameDisplay":"大井松田ＩＣIC","ref":"6","icType":"IC","lat":35.3457671,"lng":139.1542628},{"id":"288509863","name":"大井松田IC","nameDisplay":"大井松田IC","ref":"6","icType":"IC","lat":35.3415618,"lng":139.1590351},{"id":"35938010","name":"大井南","nameDisplay":"大井南IC","ref":"B18","icType":"IC","lat":35.587111,"lng":139.7551815},{"id":"2569334806","name":"大井南出口","nameDisplay":"大井南出口IC","ref":"B19","icType":"IC","lat":35.6074222,"lng":139.7554285},{"id":"3041717580","name":"大磯IC","nameDisplay":"大磯IC","ref":"5","icType":"IC","lat":35.3206512,"lng":139.2756296},{"id":"4068349997","name":"大磯IC・大磯PA（上り）","nameDisplay":"大磯IC・大磯PA（上り）","ref":"5","icType":"SA_PA","lat":35.3151151,"lng":139.2646381},{"id":"293335972","name":"大磯港IC","nameDisplay":"大磯港IC","ref":null,"icType":"IC","lat":35.3064343,"lng":139.3117286},{"id":"805155293","name":"大磯西IC","nameDisplay":"大磯西IC","ref":null,"icType":"IC","lat":35.3008313,"lng":139.2851765},{"id":"805155353","name":"大磯西IC","nameDisplay":"大磯西IC","ref":null,"icType":"IC","lat":35.3015152,"lng":139.2887446},{"id":"811215872","name":"大磯東","nameDisplay":"大磯東IC","ref":null,"icType":"IC","lat":35.305945,"lng":139.3075722},{"id":"373140052","name":"大磯東IC","nameDisplay":"大磯東IC","ref":null,"icType":"IC","lat":35.3124774,"lng":139.3261423},{"id":"244456665","name":"大栄IC","nameDisplay":"大栄IC","ref":"11","icType":"IC","lat":35.836358,"lng":140.447227},{"id":"1829886565","name":"大栄IC","nameDisplay":"大栄IC","ref":"11","icType":"IC","lat":35.8381418,"lng":140.4522803},{"id":"1829886463","name":"大栄JCT","nameDisplay":"大栄JCT","ref":"10-1","icType":"JCT","lat":35.8098091,"lng":140.3861675},{"id":"3565357038","name":"大栄JCT","nameDisplay":"大栄JCT","ref":"10-1","icType":"JCT","lat":35.8112331,"lng":140.39803},{"id":"3565357043","name":"大栄JCT","nameDisplay":"大栄JCT","ref":null,"icType":"JCT","lat":35.813263,"lng":140.3904274},{"id":"3570935246","name":"大栄JCT","nameDisplay":"大栄JCT","ref":"90","icType":"JCT","lat":35.8132753,"lng":140.3907082},{"id":"1829886476","name":"大栄PA (下り)","nameDisplay":"大栄PA (下り)","ref":null,"icType":"SA_PA","lat":35.8119476,"lng":140.4005151},{"id":"1829886500","name":"大栄PA (上り)","nameDisplay":"大栄PA (上り)","ref":null,"icType":"SA_PA","lat":35.8146741,"lng":140.4092188},{"id":"1830269061","name":"大宮ＩＣ","nameDisplay":"大宮ＩＣIC","ref":"2","icType":"IC","lat":35.5846598,"lng":140.1807953},{"id":"3815800588","name":"大宮ＩＣ","nameDisplay":"大宮ＩＣIC","ref":"2","icType":"IC","lat":35.5897709,"lng":140.1758611},{"id":"927641089","name":"大橋JCT","nameDisplay":"大橋JCT","ref":null,"icType":"JCT","lat":35.6507233,"lng":139.6845169},{"id":"3387909707","name":"大橋JCT","nameDisplay":"大橋JCT","ref":null,"icType":"JCT","lat":35.6500715,"lng":139.6906508},{"id":"3387909708","name":"大橋JCT","nameDisplay":"大橋JCT","ref":null,"icType":"JCT","lat":35.6500324,"lng":139.6905701},{"id":"7549622953","name":"大橋JCT","nameDisplay":"大橋JCT","ref":null,"icType":"JCT","lat":35.6540132,"lng":139.6897659},{"id":"626782248","name":"大月JCT","nameDisplay":"大月JCT","ref":"11","icType":"JCT","lat":35.6159359,"lng":138.9595215},{"id":"366517844","name":"大黒","nameDisplay":"大黒IC","ref":"551","icType":"IC","lat":35.465746,"lng":139.6773435},{"id":"157941466","name":"大黒JCT","nameDisplay":"大黒JCT","ref":"B09","icType":"JCT","lat":35.466355,"lng":139.6865017},{"id":"157941540","name":"大黒JCT","nameDisplay":"大黒JCT","ref":null,"icType":"JCT","lat":35.4672016,"lng":139.6880802},{"id":"364203327","name":"大黒JCT","nameDisplay":"大黒JCT","ref":null,"icType":"JCT","lat":35.4607614,"lng":139.681332},{"id":"364203351","name":"大黒JCT","nameDisplay":"大黒JCT","ref":null,"icType":"JCT","lat":35.461096,"lng":139.6784856},{"id":"364206183","name":"大黒JCT","nameDisplay":"大黒JCT","ref":"B08","icType":"JCT","lat":35.4600617,"lng":139.6775276},{"id":"448041015","name":"大師","nameDisplay":"大師IC","ref":"683","icType":"IC","lat":35.5380815,"lng":139.7396141},{"id":"1734275502","name":"大師","nameDisplay":"大師IC","ref":"151","icType":"IC","lat":35.541601,"lng":139.7418665},{"id":"448041038","name":"大師JCT","nameDisplay":"大師JCT","ref":"152A","icType":"JCT","lat":35.5365088,"lng":139.74135},{"id":"224622935","name":"大泉IC","nameDisplay":"大泉IC","ref":"50","icType":"IC","lat":35.7599568,"lng":139.5990631},{"id":"506053762","name":"大泉IC/JCT","nameDisplay":"大泉IC/JCT","ref":"2","icType":"JCT","lat":35.7623468,"lng":139.5932173},{"id":"1781291445","name":"大泉IC/JCT","nameDisplay":"大泉IC/JCT","ref":"50","icType":"JCT","lat":35.7633401,"lng":139.5995444},{"id":"7108120454","name":"大泉IC/JCT","nameDisplay":"大泉IC/JCT","ref":"50","icType":"JCT","lat":35.7633867,"lng":139.5993759},{"id":"7108632758","name":"大泉JCT・目白通りIC（仮称）","nameDisplay":"大泉JCT・目白通りIC（仮称）","ref":"50","icType":"JCT","lat":35.7494248,"lng":139.597093},{"id":"610741677","name":"大沢IC","nameDisplay":"大沢IC","ref":"2","icType":"IC","lat":36.6858016,"lng":139.7569822},{"id":"1018873888","name":"大沢IC","nameDisplay":"大沢IC","ref":"2","icType":"IC","lat":36.6903006,"lng":139.7516672},{"id":"263989521","name":"大谷PA (下り)","nameDisplay":"大谷PA (下り)","ref":null,"icType":"SA_PA","lat":36.5959806,"lng":139.8421737},{"id":"370262723","name":"大谷PA (上り)","nameDisplay":"大谷PA (上り)","ref":null,"icType":"SA_PA","lat":36.6033659,"lng":139.8441046},{"id":"6466197901","name":"大網白里スマートIC","nameDisplay":"大網白里スマートIC","ref":"101-1","icType":"SIC","lat":35.5094226,"lng":140.2948923},{"id":"6466197925","name":"大網白里スマートIC","nameDisplay":"大網白里スマートIC","ref":"101-1","icType":"SIC","lat":35.5149456,"lng":140.295595},{"id":"1917134999","name":"大木戸IC","nameDisplay":"大木戸IC","ref":null,"icType":"IC","lat":35.5162283,"lng":140.2349538},{"id":"4597822558","name":"滝野川入口","nameDisplay":"滝野川入口IC","ref":"C31","icType":"IC","lat":35.7492188,"lng":139.7158918},{"id":"31300491","name":"辰巳JCT","nameDisplay":"辰巳JCT","ref":null,"icType":"JCT","lat":35.6460328,"lng":139.821596},{"id":"31300414","name":"辰巳ジャンクション","nameDisplay":"辰巳ジャンクション","ref":null,"icType":"JCT","lat":35.6416556,"lng":139.8043746},{"id":"569035382","name":"辰巳ジャンクション","nameDisplay":"辰巳ジャンクション","ref":null,"icType":"JCT","lat":35.6480517,"lng":139.8122455},{"id":"4734266214","name":"谷川岳PA（下り）","nameDisplay":"谷川岳PA（下り）","ref":null,"icType":"SA_PA","lat":36.776738,"lng":138.9453483},{"id":"1281699984","name":"谷川岳ＰＡ（上り）","nameDisplay":"谷川岳ＰＡ（上り）IC","ref":null,"icType":"IC","lat":36.7806222,"lng":138.9394063},{"id":"252175042","name":"谷町JCT","nameDisplay":"谷町JCT","ref":null,"icType":"JCT","lat":35.668088,"lng":139.7400895},{"id":"1834044238","name":"谷津船橋 IC","nameDisplay":"谷津船橋 IC","ref":"2-1","icType":"IC","lat":35.6753632,"lng":140.0029565},{"id":"1834044243","name":"谷津船橋 IC","nameDisplay":"谷津船橋 IC","ref":"2-1","icType":"IC","lat":35.6756586,"lng":140.0010888},{"id":"2291241666","name":"谷津船橋 IC","nameDisplay":"谷津船橋 IC","ref":"2-1","icType":"IC","lat":35.67453,"lng":140.004175},